Time,Roll,Pitch,Yaw,gx,gy,gz,THR,M1,M2,M3,M4,T(C),Alt(m),BiasIF_x,BiasIF_y,BiasIF_z
18:25:26.840,-0.2,0.1,0.0,0.1,0.1,-0.1,1000,1008,1008,1008,1008,22.9,-0.23,0.0000,0.0000,0.0000
18:25:26.870,-0.1,-0.0,0.0,0.2,0.5,0.0,1000,1024,1024,1024,1024,22.9,-0.35,0.0000,0.0000,-0.0000
18:25:26.954,-0.1,0.0,0.1,0.7,0.1,-0.2,1000,1040,1040,1040,1040,22.9,-0.17,0.0000,0.0000,0.0000
18:25:27.036,-0.2,0.0,0.1,0.3,0.4,-0.9,1000,1050,1050,1050,1050,22.9,-0.14,0.0000,0.0000,0.0000
18:25:27.106,-0.2,0.1,0.1,0.2,0.2,0.5,1000,1050,1050,1050,1050,22.9,-0.14,0.0000,0.0000,0.0000
18:25:27.216,-0.3,-0.0,0.1,-0.5,0.2,0.3,1000,1050,1050,1050,1050,22.9,0.11,0.0000,0.0001,0.0000
18:25:27.302,-0.2,0.0,0.1,-0.2,0.0,0.6,1000,1050,1050,1050,1050,22.9,-0.06,0.0000,0.0001,0.0000
18:25:27.389,-0.3,0.1,0.1,0.1,0.0,0.0,1000,1050,1050,1050,1050,22.9,-0.05,0.0000,0.0001,0.0000
18:25:27.425,-0.4,-0.1,0.0,-0.0,0.1,-0.1,1000,1050,1050,1050,1050,22.9,-0.06,0.0000,0.0001,0.0000
18:25:27.506,-0.3,-0.2,0.1,0.0,0.6,0.1,1000,1050,1050,1050,1050,22.9,-0.06,0.0000,0.0001,0.0001
18:25:27.602,-0.3,-0.2,0.1,0.2,0.2,-0.6,1000,1050,1050,1050,1050,22.9,-0.06,0.0000,0.0001,0.0001
18:25:27.669,-0.4,-0.2,0.1,-0.1,0.1,0.5,1000,1050,1050,1050,1050,22.9,-0.21,-0.0000,0.0001,0.0000
18:25:27.756,-0.4,-0.1,0.0,0.0,0.3,0.3,1000,1050,1050,1050,1050,22.9,-0.27,-0.0000,0.0001,0.0000
18:25:27.841,-0.3,-0.0,-0.0,-0.4,0.4,0.8,1000,1050,1050,1050,1050,22.9,-0.23,-0.0000,0.0001,0.0000
18:25:27.907,-0.3,0.1,-0.0,-0.5,-0.2,0.2,1000,1050,1050,1050,1050,22.9,-0.10,-0.0000,0.0000,0.0000
18:25:28.007,-0.3,0.1,-0.0,-0.3,-0.2,0.2,1000,1050,1050,1050,1050,22.9,-0.10,-0.0001,0.0000,0.0000
18:25:28.093,-0.4,0.1,-0.1,0.1,-0.5,0.6,1000,1050,1050,1050,1050,22.9,-0.08,-0.0001,0.0000,0.0000
18:25:28.179,-0.3,0.2,-0.1,0.1,-0.3,0.2,1000,1050,1050,1050,1050,22.9,-0.01,-0.0000,0.0000,0.0000
18:25:28.242,-0.3,0.3,-0.1,-0.2,0.2,0.4,1000,1050,1050,1050,1050,22.9,-0.27,-0.0001,0.0000,0.0000
18:25:28.357,-0.3,0.2,-0.1,0.2,0.6,0.3,1000,1050,1050,1050,1050,22.9,-0.31,-0.0001,0.0000,0.0000
18:25:28.394,-0.4,0.2,-0.1,-0.4,-0.0,-0.4,1000,1050,1050,1050,1050,22.9,-0.31,-0.0001,0.0000,0.0000
18:25:28.790,-0.3,0.2,-0.1,-0.6,-0.5,0.3,1000,1050,1050,1050,1050,22.9,-0.09,-0.0001,0.0001,0.0000
18:25:28.795,-0.3,0.3,-0.0,0.0,0.5,-0.3,1000,1050,1050,1050,1050,22.9,-0.13,-0.0001,0.0001,0.0000
18:25:28.842,-0.4,0.2,-0.0,0.3,-0.6,-0.9,1000,1050,1050,1050,1050,22.9,-0.12,-0.0001,0.0001,0.0000
18:25:28.884,-0.2,0.3,-0.0,-0.6,-0.5,0.2,1000,1050,1050,1050,1050,22.9,-0.08,-0.0001,0.0000,0.0000
18:25:28.886,-0.1,0.3,-0.0,0.6,-0.4,0.3,1000,1050,1050,1050,1050,22.9,-0.08,-0.0001,-0.0001,0.0001
18:25:28.888,-0.1,0.1,-0.0,3.4,-3.3,0.2,1000,1050,1050,1050,1050,22.9,-0.08,0.0002,-0.0004,0.0000
18:25:28.987,0.4,-0.3,-0.1,0.7,-1.3,0.4,1000,1050,1050,1050,1050,22.9,-0.19,0.0005,-0.0005,0.0000
18:25:29.068,0.2,-0.4,-0.0,1.1,-1.2,-0.2,1000,1050,1050,1050,1050,22.9,-0.09,0.0004,-0.0004,0.0000
18:25:29.108,-0.1,-0.2,-0.0,-1.7,1.1,-0.4,1000,1050,1050,1050,1050,22.9,-0.16,-0.0000,-0.0001,0.0000
18:25:29.185,0.2,-0.2,-0.0,4.0,-3.7,-0.5,1000,1050,1050,1050,1050,22.9,-0.15,0.0003,-0.0005,0.0000
18:25:29.270,0.1,-0.3,-0.1,-3.8,3.5,0.9,1000,1050,1050,1050,1050,22.9,0.11,0.0003,-0.0005,-0.0000
18:25:29.398,-0.6,0.3,-0.1,1.5,-0.5,0.7,1000,1050,1050,1050,1050,22.9,0.11,0.0001,-0.0002,0.0000
18:25:29.450,-0.7,0.4,-0.1,1.0,-1.5,0.1,1000,1050,1050,1050,1050,22.9,-0.09,0.0002,-0.0003,0.0001
18:25:29.506,-0.5,0.5,-0.1,0.0,-0.3,-0.9,1000,1050,1050,1050,1050,22.9,-0.09,0.0002,-0.0003,0.0000
18:25:29.624,-0.6,0.5,-0.1,0.4,0.6,0.2,1000,1050,1050,1050,1050,22.9,-0.23,0.0002,-0.0004,-0.0000
18:25:29.696,-0.7,0.1,-0.1,-0.2,-0.3,0.7,1000,1050,1050,1050,1050,22.9,-0.10,0.0002,-0.0004,0.0000
18:25:29.807,-0.5,0.1,-0.0,0.5,-0.1,-0.1,1000,1050,1050,1050,1050,22.9,-0.10,0.0003,-0.0004,0.0001
18:25:29.844,-0.6,0.1,-0.0,0.2,-0.4,-0.9,1000,1050,1050,1050,1050,22.9,0.12,0.0002,-0.0003,0.0001
18:25:29.926,-0.3,0.2,-0.1,1.3,-1.1,0.2,1073,1066,1066,1066,1066,22.9,0.04,0.0003,-0.0004,0.0000
18:25:29.995,-0.1,-0.0,-0.1,1.9,-1.4,0.4,1073,1073,1073,1073,1073,22.9,0.01,0.0005,-0.0007,-0.0000
18:25:30.098,0.4,-0.2,-0.0,3.9,-3.3,1.2,1073,1073,1073,1073,1073,22.9,-0.38,0.0009,-0.0009,0.0001
18:25:30.196,0.3,-0.5,0.1,1.5,-2.3,-1.0,1073,1073,1073,1073,1073,22.9,-0.08,0.0008,-0.0009,0.0002
18:25:30.248,-0.2,-0.3,0.0,-3.1,4.7,0.5,1073,1073,1073,1073,1073,22.9,-0.08,0.0002,-0.0003,0.0001
18:25:30.310,0.7,-0.6,-0.2,-3.5,3.0,0.6,1073,1073,1073,1073,1073,22.9,-0.15,0.0005,-0.0005,-0.0001
18:25:30.429,0.6,-0.3,-0.2,-1.6,2.2,-1.1,1073,1073,1073,1073,1073,22.9,-0.14,0.0006,-0.0005,-0.0000
18:25:30.496,0.9,-0.4,-0.1,2.6,-1.9,-1.4,1073,1073,1073,1073,1073,22.9,-0.43,0.0006,-0.0006,0.0000
18:25:30.617,0.4,-0.4,-0.2,0.5,-0.4,1.6,1073,1073,1073,1073,1073,22.9,-0.22,0.0005,-0.0005,-0.0001
18:25:30.622,0.1,-0.2,-0.1,-1.3,-0.3,0.1,1073,1073,1073,1073,1073,22.9,-0.20,0.0004,-0.0005,-0.0000
18:25:30.729,0.0,-0.3,-0.1,-1.5,1.9,-1.2,1073,1073,1073,1073,1073,22.9,-0.20,0.0004,-0.0005,-0.0000
18:25:30.786,-0.2,-0.0,-0.1,-0.0,-0.1,1.5,1073,1073,1073,1073,1073,22.9,-0.27,0.0004,-0.0004,0.0000
18:25:30.899,-0.0,0.2,-0.1,-0.5,0.1,-0.6,1073,1073,1073,1073,1073,22.9,-0.10,0.0004,-0.0004,0.0000
18:25:31.008,-0.0,-0.1,-0.1,-0.2,0.5,0.1,1073,1073,1073,1073,1073,22.9,-0.03,0.0004,-0.0004,0.0000
18:25:31.041,-0.2,-0.1,-0.1,1.6,-2.0,-0.6,1073,1073,1073,1073,1073,22.9,-0.12,0.0003,-0.0004,-0.0000
18:25:31.125,0.2,-0.0,-0.2,-1.7,2.3,1.0,1073,1073,1073,1073,1073,22.9,-0.12,0.0004,-0.0004,-0.0000
18:25:31.196,0.0,0.0,-0.1,0.3,-0.1,-0.8,1073,1073,1073,1073,1073,22.9,-0.12,0.0004,-0.0004,0.0000
18:25:31.296,-0.2,-0.1,-0.1,1.6,-1.8,-0.9,1072,1072,1072,1072,1072,22.9,-0.18,0.0004,-0.0004,0.0000
18:25:31.395,-0.3,0.2,-0.1,-0.6,0.6,2.2,1074,1074,1074,1074,1074,22.9,-0.08,0.0004,-0.0004,0.0000
18:25:31.442,-0.4,0.0,-0.1,0.2,-0.2,-1.5,1074,1074,1074,1074,1074,22.9,-0.03,0.0003,-0.0004,0.0000
18:25:31.542,-0.7,-0.1,-0.2,0.8,-0.1,0.3,1074,1074,1074,1074,1074,22.9,-0.36,0.0003,-0.0005,-0.0000
18:25:31.597,-0.4,-0.3,-0.1,-0.9,-0.5,-0.5,1074,1074,1074,1074,1074,22.9,-0.36,0.0004,-0.0005,-0.0000
18:25:31.730,-0.7,-0.2,-0.1,0.3,-2.4,-0.9,1074,1074,1074,1074,1074,22.9,-0.37,0.0003,-0.0005,-0.0000
18:25:31.760,-0.8,-0.3,-0.2,1.0,0.3,1.3,1074,1074,1074,1074,1074,22.9,-0.17,0.0004,-0.0006,-0.0001
18:25:31.848,-0.3,-0.1,-0.1,-0.1,-0.5,0.4,1074,1074,1074,1074,1074,22.9,-0.11,0.0004,-0.0006,0.0001
18:25:31.934,-0.4,-0.3,-0.1,0.8,-1.1,-0.7,1074,1074,1074,1074,1074,22.9,-0.13,0.0005,-0.0007,-0.0000
18:25:31.996,-0.5,-0.4,-0.2,0.4,1.2,1.5,1074,1074,1074,1074,1074,22.9,-0.13,0.0004,-0.0006,-0.0000
18:25:32.110,-0.4,-0.2,-0.1,-1.6,-0.6,-2.1,1074,1074,1074,1074,1074,22.9,-0.37,0.0003,-0.0005,0.0000
18:25:32.147,-0.6,-0.2,-0.2,-0.1,2.0,0.5,1074,1074,1074,1074,1074,22.9,-0.22,0.0003,-0.0005,-0.0000
18:25:32.228,-0.4,-0.5,-0.1,-0.7,0.7,0.3,1074,1074,1074,1074,1074,22.9,-0.12,0.0003,-0.0005,0.0000
18:25:32.305,-0.3,-0.4,-0.1,0.1,-1.2,-0.0,1074,1074,1074,1074,1074,22.9,-0.18,0.0003,-0.0006,-0.0000
18:25:32.426,-0.6,-0.7,-0.1,0.9,0.5,0.4,1074,1074,1074,1074,1074,22.9,-0.12,0.0003,-0.0006,-0.0000
18:25:32.503,-0.6,-0.5,-0.0,-0.9,-1.5,-0.8,1074,1074,1074,1074,1074,22.9,-0.12,0.0003,-0.0005,0.0001
18:25:32.543,-0.8,-0.1,-0.1,0.1,1.3,0.9,1074,1074,1074,1074,1074,22.9,-0.01,0.0003,-0.0005,0.0000
18:25:32.662,-0.8,-0.3,-0.1,-0.2,-0.8,-1.1,1074,1074,1074,1074,1074,22.9,-0.17,0.0003,-0.0005,-0.0001
18:25:32.735,-0.6,-0.4,-0.2,-0.5,0.3,-0.3,1086,1086,1086,1086,1086,22.9,-0.08,0.0002,-0.0005,-0.0001
18:25:32.808,-0.6,-0.2,-0.2,0.6,0.6,0.3,1087,1087,1087,1087,1087,22.9,-0.39,0.0002,-0.0005,-0.0001
18:25:32.925,-0.6,-0.1,-0.1,-0.4,0.6,-1.0,1088,1088,1088,1088,1088,22.9,-0.25,0.0003,-0.0005,-0.0000
18:25:32.963,-0.5,-0.1,-0.1,-0.5,1.1,0.7,1088,1088,1088,1088,1088,22.9,-0.25,0.0002,-0.0005,0.0000
18:25:33.041,-0.8,0.1,-0.1,0.0,-1.6,0.4,1088,1088,1088,1088,1088,22.9,-0.02,0.0002,-0.0005,-0.0000
18:25:33.152,-0.7,0.0,-0.1,-1.7,1.0,-0.0,1087,1087,1087,1087,1087,22.9,-0.22,0.0002,-0.0005,-0.0000
18:25:33.203,-1.1,0.1,-0.2,1.4,-1.5,0.2,1087,1087,1087,1087,1087,22.9,-0.20,0.0002,-0.0005,-0.0001
18:25:33.269,-1.0,0.0,-0.2,-1.4,1.0,0.6,1087,1087,1087,1087,1087,22.9,-0.28,0.0002,-0.0005,-0.0001
18:25:33.429,-1.3,0.1,-0.2,1.6,-1.3,-0.2,1087,1087,1087,1087,1087,22.9,-0.28,0.0002,-0.0004,-0.0001
18:25:33.430,-1.1,0.2,-0.3,-1.4,0.9,0.3,1087,1087,1087,1087,1087,22.9,-0.32,0.0002,-0.0005,-0.0001
18:25:33.536,-1.3,0.2,-0.3,1.5,-1.6,-0.5,1087,1087,1087,1087,1087,22.9,-0.40,0.0002,-0.0005,-0.0001
18:25:33.603,-1.1,-0.1,-0.3,-1.1,0.6,0.9,1087,1087,1087,1087,1087,23.0,-0.39,0.0002,-0.0005,-0.0001
18:25:33.718,-1.2,-0.2,-0.3,0.6,-2.3,-1.0,1087,1087,1087,1087,1087,23.0,-0.38,0.0002,-0.0005,-0.0001
18:25:33.750,-1.0,-0.2,-0.3,-0.6,1.8,1.1,1087,1087,1087,1087,1087,23.0,-0.37,0.0002,-0.0006,-0.0001
18:25:34.195,-0.6,0.3,-0.2,0.8,-2.3,-2.2,1087,1087,1087,1087,1087,23.0,-0.37,0.0002,-0.0005,-0.0001
18:25:34.691,-0.6,-0.2,-0.2,0.0,2.9,1.7,1087,1087,1087,1087,1087,23.0,-0.39,0.0002,-0.0005,-0.0001
18:25:34.691,-0.5,0.2,-0.2,0.7,-2.3,-2.1,1087,1087,1087,1087,1087,23.0,-0.27,0.0003,-0.0005,-0.0001
18:25:34.706,-0.3,0.2,-0.2,0.3,2.4,2.5,1087,1087,1087,1087,1087,23.0,-0.20,0.0003,-0.0005,-0.0001
18:25:34.711,-0.4,0.4,-0.2,0.6,-1.7,-2.2,1087,1087,1087,1087,1087,23.0,-0.17,0.0003,-0.0005,-0.0001
18:25:34.714,-0.4,0.5,-0.2,-0.0,2.2,4.1,1087,1087,1087,1087,1087,23.0,-0.17,0.0003,-0.0004,-0.0000
18:25:34.718,-0.6,0.6,-0.2,0.6,-1.8,-2.3,1087,1087,1087,1087,1087,23.0,-0.31,0.0002,-0.0005,-0.0000
18:25:34.721,-0.7,0.3,-0.2,-0.8,2.6,4.4,1087,1087,1087,1087,1087,23.0,-0.07,0.0002,-0.0004,0.0000
18:25:34.721,-0.8,0.3,-0.2,1.0,-1.6,-2.3,1087,1087,1087,1087,1087,23.0,-0.27,0.0002,-0.0005,0.0000
18:25:34.723,-0.6,0.2,-0.2,-0.4,2.1,4.3,1150,1103,1103,1103,1103,23.0,-0.34,0.0002,-0.0005,0.0000
18:25:34.725,-0.8,0.2,-0.2,0.9,-1.0,-1.4,1152,1119,1119,1119,1119,23.0,-0.17,0.0002,-0.0005,0.0000
18:25:34.764,-0.9,-0.1,-0.2,0.0,1.1,2.3,1155,1135,1135,1135,1135,23.0,-0.17,0.0002,-0.0005,0.0000
18:25:34.823,-0.9,0.2,-0.2,0.4,-0.2,-0.2,1167,1151,1151,1151,1151,23.0,-0.24,0.0002,-0.0005,0.0000
18:25:34.878,-0.9,-0.2,-0.2,-0.2,-0.6,-1.1,1167,1167,1167,1167,1167,23.0,-0.18,0.0002,-0.0005,0.0000
18:25:34.946,-0.8,0.5,-0.4,-0.4,2.1,2.5,1167,1167,1167,1167,1167,23.0,0.05,0.0002,-0.0005,0.0000
18:25:35.035,-0.5,-0.1,-0.3,-1.2,-1.6,-0.6,1167,1167,1167,1167,1167,23.0,0.02,0.0002,-0.0005,0.0000
18:25:35.139,-0.7,0.1,-0.3,-1.4,-1.4,-1.6,1167,1167,1167,1167,1167,23.0,-0.23,0.0002,-0.0005,0.0000
18:25:35.207,-1.0,0.1,-0.3,-0.7,-0.4,0.1,1167,1167,1167,1167,1167,23.0,-0.23,0.0002,-0.0005,0.0000
18:25:35.267,-0.6,0.7,-0.4,-1.3,-1.2,-1.5,1167,1167,1167,1167,1167,23.0,-0.17,0.0002,-0.0005,0.0000
18:25:35.376,-1.1,0.4,-0.4,-0.8,-3.0,-0.9,1167,1167,1167,1167,1167,23.0,-0.29,0.0002,-0.0005,0.0000
18:25:35.430,-1.2,0.4,-0.4,-0.9,-2.2,2.8,1167,1167,1167,1167,1167,23.0,-0.34,0.0002,-0.0005,0.0000
18:25:35.558,-1.3,-0.6,-0.4,0.4,0.8,1.2,1167,1167,1167,1167,1167,23.0,-0.12,0.0002,-0.0005,0.0000
18:25:35.594,-0.6,-0.8,-0.6,2.1,2.9,-1.0,1167,1167,1167,1167,1167,23.0,-0.12,0.0002,-0.0005,0.0000
18:25:35.672,-0.7,-0.4,-0.6,0.1,-1.2,1.8,1167,1167,1167,1167,1167,23.0,-0.25,0.0002,-0.0005,0.0000
18:25:35.851,-1.4,-0.9,-0.6,-0.2,-0.4,1.1,1167,1167,1167,1167,1167,23.0,-0.27,0.0002,-0.0005,0.0000
18:25:35.856,-1.3,-0.2,-0.6,0.2,-1.5,-1.1,1167,1167,1167,1167,1167,23.0,-0.07,0.0002,-0.0005,0.0000
18:25:35.933,-0.9,-0.1,-0.4,-0.1,-1.4,-1.7,1167,1167,1167,1167,1167,23.0,-0.47,0.0002,-0.0005,0.0000
18:25:36.032,-0.6,-0.3,-0.3,-0.4,2.8,-1.3,1167,1167,1167,1167,1167,23.0,-0.36,0.0002,-0.0005,0.0000
18:25:36.063,-0.3,-0.2,-0.3,0.2,-0.9,-0.6,1167,1167,1167,1167,1167,23.0,-0.36,0.0002,-0.0005,0.0000
18:25:36.184,-0.4,0.1,-0.5,-0.5,-1.1,1.1,1167,1167,1167,1167,1167,23.0,-0.36,0.0002,-0.0005,0.0000
18:25:36.231,0.2,0.1,-0.5,-0.4,2.8,2.5,1167,1167,1167,1167,1167,23.0,-0.19,0.0002,-0.0005,0.0000
18:25:36.332,0.6,0.3,-0.6,0.6,0.8,0.9,1167,1167,1167,1167,1167,23.0,-0.31,0.0002,-0.0005,0.0000
18:25:36.446,0.7,0.5,-0.7,1.5,0.7,0.5,1167,1167,1167,1167,1167,23.0,-0.33,0.0002,-0.0005,0.0000
18:25:36.483,1.0,0.4,-0.6,1.7,1.4,-0.2,1167,1167,1167,1167,1167,23.0,-0.48,0.0002,-0.0005,0.0000
18:25:36.571,0.6,0.4,-0.5,0.0,-0.9,-3.0,1191,1183,1183,1183,1183,23.0,-0.48,0.0002,-0.0005,0.0000
18:25:36.658,0.2,0.3,-0.5,-0.4,1.8,-2.9,1191,1191,1191,1191,1191,23.0,-0.49,0.0002,-0.0005,0.0000
18:25:36.731,-0.2,0.1,-0.5,-1.4,-0.4,1.7,1191,1191,1191,1191,1191,23.0,-0.36,0.0002,-0.0005,0.0000
18:25:36.863,-0.0,-0.7,-0.7,0.2,-1.0,-0.3,1191,1191,1191,1191,1191,23.0,-0.57,0.0002,-0.0005,0.0000
18:25:36.865,-0.3,0.1,-0.6,2.2,3.0,1.8,1191,1191,1191,1191,1191,23.0,-0.52,0.0002,-0.0005,0.0000
18:25:36.976,-0.6,0.5,-0.7,0.9,1.7,-1.8,1191,1191,1191,1191,1191,23.0,-0.52,0.0002,-0.0005,0.0000
18:25:37.043,-0.9,0.4,-0.6,-2.1,-3.5,2.9,1191,1191,1191,1191,1191,23.0,-0.86,0.0002,-0.0005,0.0000
18:25:37.145,-0.4,0.2,-0.6,-0.1,-2.4,-0.3,1200,1199,1199,1199,1199,23.0,-0.61,0.0002,-0.0005,0.0000
18:25:37.263,0.2,0.2,-0.5,2.2,0.6,-0.6,1200,1200,1200,1200,1200,23.0,-0.41,0.0002,-0.0005,0.0000
18:25:37.266,-0.7,0.3,-0.6,0.1,5.4,-3.0,1200,1200,1200,1200,1200,23.0,-0.43,0.0002,-0.0005,0.0000
18:25:37.376,-0.8,0.1,-0.6,-0.8,2.3,-0.0,1200,1200,1200,1200,1200,23.0,-0.46,0.0002,-0.0005,0.0000
18:25:37.433,-0.5,-0.3,-0.4,-1.4,-2.0,2.4,1200,1200,1200,1200,1200,23.0,-0.46,0.0002,-0.0005,0.0000
18:25:37.565,0.4,-0.1,-0.4,-1.0,-3.0,0.4,1200,1200,1200,1200,1200,23.0,-0.61,0.0002,-0.0005,0.0000
18:25:37.601,0.8,0.2,-0.4,-0.7,-0.4,1.1,1200,1200,1200,1200,1200,23.0,-0.37,0.0002,-0.0005,0.0000
18:25:37.716,-0.6,-0.5,-0.4,1.1,-2.1,0.7,1200,1200,1200,1200,1200,23.0,-0.38,0.0002,-0.0005,0.0000
18:25:37.759,-0.9,-0.3,-0.4,-2.0,3.0,1.4,1200,1200,1200,1200,1200,23.0,-0.56,0.0002,-0.0005,0.0000
18:25:37.832,-0.4,0.6,-0.4,1.4,2.0,0.1,1200,1200,1200,1200,1200,23.0,-0.56,0.0002,-0.0005,0.0000
18:25:37.935,-0.1,-0.4,-0.3,-1.0,-3.1,0.9,1200,1200,1200,1200,1200,23.0,-0.25,0.0002,-0.0005,0.0000
18:25:38.034,0.4,0.0,-0.3,1.8,7.4,-0.1,1200,1200,1200,1200,1200,23.0,-0.34,0.0002,-0.0005,0.0000
18:25:38.071,0.6,0.1,-0.3,0.8,-2.0,0.9,1200,1200,1200,1200,1200,23.0,-0.45,0.0002,-0.0005,0.0000
18:25:38.163,-0.8,-1.1,-0.2,-1.3,-1.2,1.3,1200,1200,1200,1200,1200,23.0,-0.34,0.0002,-0.0005,0.0000
18:25:38.250,1.1,0.4,-0.1,2.1,4.1,1.0,1200,1200,1200,1200,1200,23.0,-0.36,0.0002,-0.0005,0.0000
18:25:38.386,1.0,0.2,0.1,-4.7,-4.9,3.5,1200,1200,1200,1200,1200,23.0,-0.36,0.0002,-0.0005,0.0000
18:25:38.387,1.1,-0.1,0.2,2.5,5.0,1.7,1200,1200,1200,1200,1200,23.0,-0.15,0.0002,-0.0005,0.0000
18:25:38.469,0.0,-0.3,0.3,1.6,-0.4,2.5,1200,1200,1200,1200,1200,23.0,-0.23,0.0002,-0.0005,0.0000
18:25:38.589,-0.6,-0.8,0.5,-1.7,-1.6,2.9,1200,1200,1200,1200,1200,23.0,-0.25,0.0002,-0.0005,0.0000
18:25:38.652,-0.4,-0.6,0.4,4.8,5.0,-0.9,1200,1200,1200,1200,1200,23.0,-0.37,0.0002,-0.0005,0.0000
18:25:38.771,-1.2,-1.7,0.3,-1.4,-4.4,-1.6,1200,1200,1200,1200,1200,23.0,-0.41,0.0002,-0.0005,0.0000
18:25:38.782,-0.6,-0.5,0.1,-0.5,3.0,-3.2,1200,1200,1200,1200,1200,23.0,-0.41,0.0002,-0.0005,0.0000
18:25:38.884,-1.4,-1.2,-0.3,1.6,-2.5,-7.4,1200,1200,1200,1200,1200,23.0,-0.48,0.0002,-0.0005,0.0000
18:25:38.952,-0.4,-1.5,-0.7,0.6,-1.4,-3.6,1200,1200,1200,1200,1200,23.0,-0.48,0.0002,-0.0005,0.0000
18:25:39.046,-1.2,0.0,-1.0,1.1,2.7,-5.9,1200,1200,1200,1200,1200,23.0,-0.17,0.0002,-0.0005,0.0000
18:25:39.152,-2.0,-0.7,-0.9,-2.0,1.0,1.7,1200,1200,1200,1200,1200,23.0,-0.25,0.0002,-0.0005,0.0000
18:25:39.249,-1.1,0.7,-1.1,0.5,5.3,-2.6,1200,1200,1200,1200,1200,23.0,-0.25,0.0002,-0.0005,0.0000
18:25:39.268,-2.2,-0.6,-1.1,1.2,-3.4,0.8,1223,1208,1208,1208,1208,23.0,-0.12,0.0002,-0.0005,0.0000
18:25:39.402,-1.7,-0.5,-1.1,0.5,5.8,-0.8,1285,1224,1224,1224,1224,23.0,-0.01,0.0002,-0.0004,0.0000
18:25:39.431,-1.7,-0.0,-1.2,-0.7,1.6,1.9,1285,1240,1240,1240,1240,23.0,-0.27,0.0002,-0.0004,0.0000
18:25:39.524,-0.6,1.6,-1.1,0.9,3.0,-2.7,1286,1256,1256,1256,1256,23.0,-0.33,0.0002,-0.0004,0.0000
18:25:39.605,-0.6,1.6,-1.3,0.4,-2.0,-1.2,1288,1272,1272,1272,1272,23.0,-0.26,0.0002,-0.0004,0.0000
18:25:39.663,0.5,2.4,-1.5,6.9,6.0,-0.3,1288,1288,1288,1286,1288,23.0,-0.26,0.0003,-0.0004,-0.0000
18:25:40.133,0.7,2.2,-1.6,2.7,1.3,-0.2,1291,1289,1293,1289,1293,23.0,-0.20,0.0003,-0.0004,-0.0000
18:25:40.137,1.3,2.0,-1.6,6.7,0.0,-0.0,1298,1295,1301,1295,1300,23.0,-0.15,0.0003,-0.0004,-0.0000
18:25:40.143,2.1,1.6,-1.5,9.8,-1.6,1.7,1298,1295,1305,1295,1299,23.0,-0.47,0.0003,-0.0004,-0.0000
18:25:40.148,2.6,1.6,-1.0,9.3,9.3,7.2,1298,1283,1313,1296,1296,23.0,-0.20,0.0003,-0.0004,0.0000
18:25:40.150,1.2,0.8,-0.8,2.2,2.2,8.4,1298,1287,1307,1309,1289,23.0,-0.20,0.0003,-0.0004,0.0000
18:25:40.195,1.1,1.6,-0.7,-0.8,6.7,3.1,1298,1296,1300,1302,1294,23.0,0.07,0.0003,-0.0004,0.0000
18:25:40.274,1.1,1.9,-0.5,2.7,11.3,0.0,1298,1292,1308,1301,1295,23.0,0.04,0.0003,-0.0004,0.0001
18:25:40.307,1.0,2.0,-0.0,0.8,4.1,5.8,1298,1289,1309,1301,1293,23.0,-0.33,0.0003,-0.0004,0.0001
18:25:40.402,0.4,0.3,0.3,-8.7,3.5,6.1,1298,1286,1307,1305,1297,23.0,0.04,0.0003,-0.0004,0.0001
18:25:40.470,0.0,0.5,0.9,-2.6,6.9,-1.5,1298,1289,1307,1305,1297,23.0,0.08,0.0003,-0.0004,0.0001
18:25:40.569,-0.5,0.2,1.9,-9.4,-7.2,16.7,1298,1276,1312,1321,1281,23.0,0.08,0.0003,-0.0004,0.0001
18:25:40.641,-0.3,-0.4,2.2,1.7,-12.7,7.3,1298,1292,1304,1312,1284,23.0,0.11,0.0003,-0.0004,0.0001
18:25:40.727,-0.4,0.7,2.5,3.5,-3.4,8.5,1298,1287,1308,1310,1288,23.1,-0.22,0.0003,-0.0004,0.0001
18:25:40.836,-0.5,0.8,2.6,2.7,2.0,-0.5,1298,1300,1300,1296,1296,23.0,-0.10,0.0004,-0.0004,0.0001
18:25:40.870,0.4,1.5,3.1,0.3,7.3,10.3,1298,1284,1309,1311,1287,23.1,0.02,0.0004,-0.0004,0.0001
18:25:40.961,0.7,2.2,3.2,9.0,6.3,1.3,1298,1299,1303,1299,1291,23.0,-0.22,0.0004,-0.0004,0.0001
18:25:41.069,0.6,2.8,4.0,-1.0,3.0,7.9,1298,1288,1303,1315,1286,23.0,-0.22,0.0003,-0.0003,0.0001
18:25:41.103,1.1,3.0,4.6,1.0,0.4,9.6,1296,1284,1308,1312,1280,23.1,-0.25,0.0004,-0.0003,0.0001
18:25:41.185,1.0,2.5,4.9,5.0,-16.7,12.0,1296,1288,1304,1312,1280,23.1,-0.05,0.0004,-0.0004,0.0001
18:25:41.282,1.0,1.8,4.6,4.1,-16.0,-1.2,1296,1304,1292,1300,1288,23.1,-0.32,0.0004,-0.0004,0.0001
18:25:41.388,1.3,1.7,4.9,7.7,-5.2,1.5,1296,1300,1300,1300,1284,23.1,-0.31,0.0004,-0.0004,0.0002
18:25:41.423,1.1,1.7,5.1,-8.5,-2.2,2.7,1296,1287,1293,1309,1295,23.1,-0.31,0.0004,-0.0004,0.0002
18:25:41.504,0.6,1.6,5.9,-7.1,-1.9,8.9,1296,1284,1308,1310,1282,23.1,-0.14,0.0004,-0.0004,0.0002
18:25:41.591,-0.3,1.4,6.2,-18.0,-5.7,7.9,1296,1282,1298,1312,1286,23.1,-0.26,0.0004,-0.0004,0.0002
18:25:41.681,-0.7,1.1,6.8,-6.0,-5.8,7.6,1296,1285,1307,1309,1283,23.1,-0.34,0.0004,-0.0004,0.0002
18:25:41.775,-0.6,1.4,7.0,3.7,5.2,1.0,1296,1293,1305,1295,1291,23.1,-0.10,0.0004,-0.0004,0.0002
18:25:41.875,0.6,2.2,7.4,1.3,10.4,7.2,1296,1282,1310,1306,1286,23.1,-0.30,0.0004,-0.0004,0.0002
18:25:41.908,1.1,2.6,7.6,-2.1,5.0,8.0,1296,1284,1310,1308,1286,23.1,-0.30,0.0004,-0.0004,0.0002
18:25:42.005,0.9,2.8,7.4,3.8,6.3,-1.6,1296,1297,1305,1292,1293,23.1,-0.21,0.0004,-0.0004,0.0002
18:25:42.114,1.1,2.9,7.5,-1.6,-1.6,0.1,1296,1294,1296,1302,1292,23.1,-0.34,0.0004,-0.0004,0.0002
18:25:42.174,0.7,2.3,8.2,-4.2,-0.4,4.3,1296,1282,1310,1302,1292,23.1,-0.02,0.0004,-0.0004,0.0002
18:25:42.297,1.2,2.0,8.8,5.1,-1.6,12.8,1296,1281,1317,1312,1280,23.1,-0.25,0.0004,-0.0004,0.0002
18:25:42.304,1.7,1.5,9.1,2.1,-5.3,5.4,1296,1284,1304,1308,1288,23.1,0.01,0.0004,-0.0004,0.0002
18:25:42.411,1.6,1.9,9.5,4.3,7.2,4.1,1296,1283,1313,1300,1291,23.1,-0.03,0.0004,-0.0004,0.0003
18:25:42.480,3.3,1.8,9.5,-1.9,5.3,1.6,1296,1286,1302,1302,1294,23.1,-0.15,0.0004,-0.0003,0.0003
18:25:42.597,3.8,2.4,9.7,-2.0,2.3,4.5,1296,1287,1305,1305,1287,23.1,-0.26,0.0004,-0.0003,0.0003
18:25:42.698,3.5,1.6,9.7,-0.9,-1.9,5.2,1297,1287,1305,1305,1287,23.1,0.01,0.0003,-0.0004,0.0003
18:25:42.705,3.4,1.7,9.3,3.1,1.3,-5.5,1297,1301,1299,1291,1297,23.1,-0.11,0.0004,-0.0004,0.0002
18:25:42.807,3.5,2.2,9.4,7.2,7.7,-1.1,1297,1297,1307,1291,1293,23.1,-0.11,0.0004,-0.0003,0.0003
18:25:42.890,4.7,2.8,9.5,1.6,7.7,2.3,1297,1289,1300,1305,1298,23.1,-0.09,0.0004,-0.0003,0.0003
18:25:42.977,4.8,2.8,9.8,0.8,4.9,0.8,1297,1287,1307,1302,1297,23.1,-0.21,0.0004,-0.0003,0.0003
18:25:43.089,5.1,2.8,10.1,3.5,-1.4,2.6,1297,1291,1303,1305,1289,23.1,-0.13,0.0004,-0.0003,0.0003
18:25:43.145,5.1,2.6,10.6,-5.6,-4.9,5.8,1297,1282,1302,1314,1290,23.1,-0.02,0.0004,-0.0003,0.0003
18:25:43.203,4.8,2.5,10.8,0.5,8.5,8.8,1297,1282,1307,1300,1288,23.1,-0.15,0.0004,-0.0003,0.0003
18:25:43.295,5.8,2.9,10.6,1.2,2.1,1.5,1297,1293,1299,1300,1289,23.1,-0.15,0.0004,-0.0003,0.0004
18:25:43.395,5.6,3.5,10.5,3.6,2.0,0.5,1297,1294,1302,1302,1290,23.1,-0.11,0.0004,-0.0003,0.0004
18:25:43.449,5.4,3.7,10.3,4.2,1.3,-5.5,1297,1302,1300,1292,1294,23.1,-0.13,0.0004,-0.0003,0.0003
18:25:43.533,5.1,3.8,10.8,-7.9,0.4,2.9,1297,1286,1301,1308,1293,23.1,-0.21,0.0004,-0.0003,0.0003
18:25:43.599,4.1,3.4,11.1,-7.4,3.3,7.3,1297,1280,1312,1308,1290,23.1,-0.12,0.0003,-0.0003,0.0004
18:25:43.714,4.3,3.3,11.1,-3.1,-3.9,1.9,1297,1291,1297,1308,1291,23.1,-0.12,0.0003,-0.0003,0.0004
18:25:43.746,4.1,2.7,11.4,-2.2,-9.3,1.9,1297,1290,1304,1304,1290,23.1,0.05,0.0003,-0.0003,0.0004
18:25:43.895,4.4,2.8,11.9,3.5,1.1,6.1,1297,1286,1310,1308,1284,23.1,-0.18,0.0004,-0.0003,0.0004
18:25:43.903,4.4,2.9,12.1,3.6,3.8,7.5,1297,1283,1312,1307,1283,23.1,-0.17,0.0004,-0.0003,0.0005
18:25:43.991,4.7,3.5,11.9,8.4,6.2,-1.5,1296,1297,1301,1295,1291,23.1,-0.09,0.0004,-0.0003,0.0004
18:25:44.109,5.5,4.0,11.8,5.1,6.3,-4.9,1296,1297,1295,1295,1297,23.1,-0.14,0.0004,-0.0002,0.0004
18:25:44.172,4.8,3.9,12.0,-1.7,0.7,-1.7,1296,1294,1300,1296,1294,23.1,-0.14,0.0004,-0.0002,0.0004
18:25:44.246,4.8,3.7,12.4,-1.2,-0.8,3.7,1296,1286,1306,1304,1288,23.1,-0.34,0.0004,-0.0003,0.0005
18:25:44.320,4.5,3.4,12.7,-10.6,-6.4,6.2,1296,1283,1305,1311,1285,23.1,-0.31,0.0004,-0.0003,0.0005
18:25:44.433,4.0,3.4,12.7,-2.5,1.1,3.7,1296,1287,1307,1303,1287,23.1,-0.11,0.0003,-0.0003,0.0005
18:25:44.463,3.6,3.1,12.3,-0.9,-5.5,-2.0,1296,1299,1295,1301,1289,23.1,-0.08,0.0003,-0.0003,0.0005
18:25:44.648,3.4,3.3,12.3,2.9,2.8,-5.4,1296,1299,1299,1297,1293,23.1,0.10,0.0003,-0.0003,0.0004
18:25:44.648,3.3,4.2,12.5,4.1,11.1,0.4,1296,1295,1305,1297,1287,23.1,0.10,0.0003,-0.0003,0.0004
18:25:44.706,3.5,4.8,12.9,-3.8,6.2,5.5,1296,1280,1302,1312,1288,23.1,-0.17,0.0003,-0.0002,0.0005
18:25:44.795,3.2,4.4,12.9,9.6,1.4,2.9,1296,1290,1306,1302,1286,23.1,-0.07,0.0003,-0.0002,0.0005
18:25:44.922,3.4,3.8,12.9,-1.0,-13.6,-1.3,1296,1296,1293,1308,1290,23.1,-0.11,0.0004,-0.0003,0.0005
18:25:44.955,2.9,3.1,13.0,-4.3,-6.7,2.2,1296,1287,1305,1303,1289,23.1,-0.04,0.0003,-0.0003,0.0005
18:25:45.036,2.6,2.5,13.1,-9.9,-14.4,5.4,1296,1285,1297,1309,1283,23.1,-0.04,0.0003,-0.0003,0.0005
18:25:45.143,2.2,1.6,13.0,-2.3,-11.0,-0.0,1296,1294,1304,1298,1288,23.1,-0.06,0.0003,-0.0003,0.0005
18:25:45.585,2.1,1.5,12.9,2.8,-3.2,1.3,1296,1294,1304,1300,1288,23.1,0.11,0.0003,-0.0003,0.0005
18:25:45.588,2.7,1.7,12.7,-3.7,2.2,-1.1,1296,1287,1294,1302,1299,23.1,0.17,0.0003,-0.0003,0.0005
18:25:45.593,2.5,2.2,12.6,-0.8,14.3,-4.4,1296,1290,1306,1295,1299,23.1,-0.14,0.0003,-0.0003,0.0005
18:25:45.599,2.6,2.8,12.8,3.9,6.8,-0.9,1296,1294,1299,1302,1290,23.1,-0.02,0.0003,-0.0003,0.0005
18:25:45.602,3.9,3.7,13.2,0.6,8.9,1.6,1296,1287,1301,1305,1291,23.1,-0.02,0.0003,-0.0003,0.0005
18:25:45.603,3.6,3.5,13.6,-5.9,-1.9,7.2,1296,1281,1309,1311,1283,23.1,-0.12,0.0003,-0.0003,0.0005
18:25:45.666,3.5,2.9,13.8,-5.6,-8.8,6.4,1296,1283,1305,1311,1283,23.1,-0.12,0.0003,-0.0003,0.0005
18:25:45.774,2.9,2.0,13.5,-4.8,-9.2,-0.3,1296,1288,1298,1304,1294,23.1,-0.10,0.0003,-0.0003,0.0005
18:25:45.843,3.2,1.5,12.8,-0.2,-5.9,-4.4,1296,1295,1295,1297,1297,23.1,-0.17,0.0003,-0.0003,0.0005
18:25:45.925,3.6,1.3,12.5,11.0,-0.4,-6.3,1296,1302,1302,1287,1294,23.1,-0.17,0.0003,-0.0003,0.0005
18:25:46.015,5.2,2.0,12.5,7.8,5.0,-1.2,1296,1293,1299,1299,1293,23.1,-0.12,0.0003,-0.0003,0.0005
18:25:46.146,5.7,2.6,12.4,3.5,3.4,4.0,1296,1289,1303,1304,1287,23.1,0.04,0.0004,-0.0003,0.0005
18:25:46.148,5.6,2.4,11.9,1.0,-0.9,-5.5,1296,1297,1297,1293,1297,23.1,-0.22,0.0004,-0.0003,0.0004
18:25:46.235,5.5,2.3,11.1,-0.9,-2.3,-13.3,1296,1307,1285,1285,1307,23.1,0.05,0.0004,-0.0003,0.0004
18:25:46.324,5.0,2.2,11.3,-14.9,-5.6,-4.2,1296,1293,1291,1301,1299,23.1,-0.08,0.0004,-0.0003,0.0004
18:25:46.392,4.3,2.1,11.6,-1.4,5.9,7.4,1296,1284,1307,1302,1288,23.1,-0.08,0.0003,-0.0003,0.0005
18:25:46.485,3.6,1.5,11.3,-6.9,-3.8,2.5,1296,1284,1298,1304,1294,23.1,-0.09,0.0003,-0.0003,0.0005
18:25:46.567,4.0,1.9,11.0,8.3,9.4,-3.5,1296,1295,1305,1288,1297,23.1,-0.06,0.0003,-0.0003,0.0004
18:25:46.669,4.2,2.1,11.2,0.3,-0.9,1.7,1296,1291,1297,1304,1289,23.1,0.10,0.0003,-0.0003,0.0005
18:25:46.737,4.1,1.9,11.0,-1.0,1.5,3.9,1296,1288,1300,1300,1289,23.1,0.01,0.0003,-0.0003,0.0005
18:25:46.818,4.6,2.1,10.6,0.5,0.1,-6.0,1296,1299,1291,1295,1299,23.1,0.26,0.0003,-0.0003,0.0004
18:25:46.880,4.0,1.4,10.2,3.6,-5.5,-7.6,1296,1304,1294,1291,1298,23.1,0.26,0.0004,-0.0003,0.0004
18:25:46.954,5.1,1.0,10.3,7.2,-0.4,-3.5,1296,1295,1299,1293,1297,23.1,0.15,0.0004,-0.0003,0.0004
18:25:47.056,5.2,0.4,10.2,-0.9,-6.0,2.2,1296,1288,1302,1304,1290,23.1,0.09,0.0004,-0.0004,0.0004
18:25:47.162,5.2,0.7,9.7,4.3,-0.7,-3.1,1296,1296,1296,1296,1296,23.1,-0.11,0.0004,-0.0004,0.0004
18:25:47.201,4.9,0.1,9.2,1.1,-8.2,-9.3,1296,1306,1292,1290,1298,23.1,0.04,0.0004,-0.0004,0.0004
18:25:47.322,5.2,0.1,8.8,4.7,3.6,-7.5,1296,1301,1297,1285,1301,23.1,0.04,0.0004,-0.0004,0.0003
18:25:47.353,4.6,-0.3,8.5,-5.4,-2.9,-5.8,1296,1299,1291,1295,1299,23.1,0.10,0.0004,-0.0004,0.0003
18:25:47.444,4.3,0.3,8.1,-4.0,6.5,-7.4,1296,1301,1291,1291,1301,23.1,0.13,0.0004,-0.0003,0.0003
18:25:47.530,3.8,0.6,8.2,-10.1,0.1,-2.2,1296,1294,1294,1298,1298,23.1,0.04,0.0004,-0.0003,0.0003
18:25:47.594,3.7,0.5,7.8,0.8,-2.2,1.9,1296,1294,1299,1298,1293,23.1,0.10,0.0004,-0.0004,0.0003
18:25:47.676,3.5,0.2,7.1,2.9,-0.9,-9.7,1296,1307,1293,1283,1301,23.1,0.13,0.0004,-0.0004,0.0003
18:25:47.764,3.5,0.6,7.0,-3.2,-3.2,-7.6,1296,1302,1291,1292,1301,23.1,0.13,0.0003,-0.0004,0.0003
18:25:47.848,3.5,0.6,7.2,2.2,4.8,3.1,1296,1286,1307,1297,1293,23.1,0.13,0.0003,-0.0004,0.0003
18:25:47.965,3.1,-0.3,7.0,-7.4,-7.7,0.7,1296,1289,1295,1305,1295,23.1,-0.01,0.0003,-0.0004,0.0003
18:25:48.041,3.2,-0.5,6.8,7.0,-1.6,-5.7,1296,1304,1296,1289,1296,23.1,0.21,0.0004,-0.0004,0.0002
18:25:48.081,3.5,-0.3,7.0,5.1,-2.8,2.3,1296,1294,1298,1304,1288,23.1,-0.01,0.0004,-0.0004,0.0003
18:25:48.143,3.4,-0.8,7.1,0.9,-3.7,7.1,1296,1287,1303,1306,1286,23.1,-0.01,0.0004,-0.0004,0.0003
18:25:48.240,4.5,-0.4,6.6,10.7,3.7,-5.0,1296,1299,1293,1293,1299,23.1,0.21,0.0004,-0.0004,0.0003
18:25:48.331,4.8,-0.3,6.6,7.9,2.7,-5.9,1296,1299,1293,1293,1299,23.1,0.06,0.0004,-0.0004,0.0003
18:25:48.390,5.2,0.3,6.9,5.4,6.7,-2.1,1296,1295,1297,1295,1297,23.1,0.05,0.0005,-0.0004,0.0003
18:25:48.496,4.4,0.7,7.2,-6.6,5.6,6.4,1296,1281,1304,1310,1292,23.1,-0.01,0.0004,-0.0004,0.0003
18:25:48.575,4.0,0.9,6.9,-5.2,5.0,-0.2,1296,1291,1297,1299,1297,23.1,0.03,0.0004,-0.0003,0.0003
18:25:48.662,3.8,0.9,6.4,-8.7,-6.6,-6.9,1296,1305,1287,1295,1297,23.1,0.03,0.0004,-0.0003,0.0003
18:25:48.745,3.3,1.3,6.2,-2.4,7.2,-8.6,1296,1304,1294,1287,1302,23.1,0.07,0.0004,-0.0003,0.0003
18:25:48.831,3.0,1.1,6.1,-9.0,-4.2,0.5,1296,1291,1292,1303,1296,23.1,-0.19,0.0004,-0.0003,0.0003
18:25:48.862,3.1,0.6,5.4,3.0,-3.4,-7.9,1296,1303,1293,1287,1303,23.1,-0.02,0.0004,-0.0004,0.0003
18:25:48.954,3.5,-0.1,5.3,-0.9,-12.0,-9.6,1297,1303,1290,1291,1303,23.1,0.03,0.0004,-0.0004,0.0003
18:25:49.080,3.7,-0.4,5.4,1.5,-5.1,4.7,1296,1289,1303,1303,1287,23.1,0.01,0.0004,-0.0004,0.0003
18:25:49.123,3.3,-0.8,4.9,-2.0,-2.9,-5.0,1297,1301,1299,1289,1299,23.1,0.01,0.0004,-0.0004,0.0003
18:25:49.197,3.0,-0.9,4.3,-4.8,-5.5,-11.0,1296,1308,1283,1288,1306,23.1,0.09,0.0004,-0.0004,0.0002
18:25:49.271,2.7,-1.0,4.4,-3.2,2.9,-3.1,1296,1293,1299,1291,1301,23.1,-0.06,0.0004,-0.0004,0.0002
18:25:49.387,3.1,-0.7,4.4,2.8,2.3,3.8,1296,1291,1299,1299,1289,23.1,0.02,0.0004,-0.0004,0.0002
18:25:49.423,3.6,-0.3,4.3,11.2,11.6,-1.0,1296,1295,1303,1287,1297,23.1,-0.03,0.0005,-0.0003,0.0002
18:25:49.541,4.1,0.6,4.5,4.8,6.9,1.1,1296,1294,1298,1300,1292,23.1,-0.03,0.0005,-0.0003,0.0002
18:25:49.645,4.1,1.3,4.5,5.6,11.5,3.4,1296,1291,1303,1295,1291,23.1,-0.09,0.0005,-0.0003,0.0002
18:25:49.687,4.0,0.8,4.7,-2.3,1.3,-2.1,1296,1293,1299,1295,1294,23.1,0.19,0.0004,-0.0003,0.0002
18:25:49.753,4.4,0.9,5.2,0.8,-8.7,4.9,1296,1293,1299,1311,1283,23.1,0.28,0.0005,-0.0003,0.0003
18:25:49.835,4.6,0.8,5.5,2.0,-1.4,5.8,1296,1287,1309,1301,1287,23.1,0.06,0.0005,-0.0003,0.0003
18:25:49.950,4.5,0.4,5.4,-3.9,-6.9,2.9,1296,1290,1302,1302,1290,23.1,0.16,0.0005,-0.0004,0.0003
18:25:50.013,4.3,0.2,5.2,1.5,3.3,0.2,1296,1292,1303,1288,1296,23.1,0.16,0.0004,-0.0004,0.0003
18:25:50.096,5.0,0.5,4.9,0.2,2.3,-0.8,1296,1292,1292,1296,1298,23.1,-0.08,0.0004,-0.0004,0.0003
18:25:50.171,5.1,0.8,5.0,4.9,8.8,-3.3,1296,1295,1305,1295,1298,23.1,-0.06,0.0004,-0.0004,0.0003
18:25:50.266,5.2,1.0,5.5,-4.4,0.2,5.2,1296,1286,1301,1311,1288,23.1,0.06,0.0004,-0.0004,0.0003
18:25:50.328,4.9,1.2,5.8,-1.1,5.4,6.7,1296,1286,1308,1302,1286,23.1,-0.07,0.0004,-0.0004,0.0004
18:25:50.394,4.8,1.4,5.7,-4.9,-2.2,0.7,1296,1296,1294,1304,1290,23.1,0.05,0.0004,-0.0004,0.0004
18:25:50.482,4.2,1.2,5.5,-5.0,-4.5,-1.9,1296,1299,1297,1295,1293,23.1,0.05,0.0003,-0.0004,0.0004
18:25:50.552,4.2,1.7,5.6,0.6,1.6,-3.7,1296,1299,1297,1297,1295,23.1,-0.02,0.0003,-0.0004,0.0003
18:25:51.023,4.1,1.5,6.2,-3.0,-2.1,6.3,1296,1286,1306,1306,1286,23.1,-0.07,0.0003,-0.0004,0.0004
18:25:51.028,4.3,1.4,6.5,10.6,1.0,5.3,1296,1289,1311,1299,1285,23.1,0.02,0.0004,-0.0004,0.0004
18:25:51.032,3.9,1.1,6.5,-1.9,-12.9,2.3,1296,1292,1295,1309,1290,23.1,-0.20,0.0004,-0.0004,0.0004
18:25:51.062,4.1,0.2,6.7,1.7,-10.5,-1.4,1296,1295,1297,1298,1294,23.1,-0.20,0.0004,-0.0004,0.0004
18:25:51.065,4.5,0.4,7.1,3.1,0.2,2.6,1296,1292,1304,1300,1288,23.1,-0.16,0.0004,-0.0004,0.0004
18:25:51.067,4.7,0.6,7.3,0.8,-1.1,7.7,1296,1286,1305,1304,1286,23.1,-0.20,0.0004,-0.0004,0.0004
18:25:51.110,4.4,0.7,7.2,-2.4,4.1,5.1,1296,1286,1305,1302,1290,23.1,-0.12,0.0004,-0.0004,0.0005
18:25:51.197,4.6,1.0,6.9,5.7,7.1,0.9,1296,1292,1305,1294,1292,23.1,-0.28,0.0004,-0.0004,0.0004
18:25:51.268,5.0,1.3,6.4,7.6,3.8,-7.6,1296,1303,1291,1289,1301,23.1,-0.16,0.0005,-0.0003,0.0004
18:25:51.366,5.6,1.8,5.9,4.3,3.5,-11.1,1296,1304,1288,1289,1305,23.1,-0.16,0.0005,-0.0003,0.0004
18:25:51.453,5.2,1.8,6.2,-8.3,-0.6,-2.7,1296,1293,1293,1299,1299,23.1,-0.06,0.0004,-0.0003,0.0004
18:25:51.537,4.3,1.8,6.4,-4.2,5.5,6.0,1296,1286,1306,1302,1290,23.1,-0.02,0.0004,-0.0003,0.0004
18:25:51.621,3.7,1.2,6.1,-13.4,-7.5,-0.3,1296,1290,1290,1303,1298,23.1,0.06,0.0004,-0.0003,0.0004
18:25:51.707,3.4,1.3,6.0,-0.2,3.1,-3.8,1296,1301,1299,1289,1295,23.1,-0.04,0.0004,-0.0003,0.0004
18:25:51.744,2.9,1.5,6.3,-8.8,-3.0,7.2,1296,1287,1301,1305,1283,23.1,-0.04,0.0004,-0.0003,0.0004
18:25:51.827,2.6,1.3,6.1,0.0,-1.7,4.6,1296,1290,1301,1300,1286,23.1,-0.02,0.0003,-0.0003,0.0004
18:25:51.914,3.2,1.0,5.7,1.1,-9.3,-6.3,1296,1302,1287,1298,1300,23.1,-0.02,0.0003,-0.0003,0.0004
18:25:52.002,3.0,0.4,6.0,-1.0,-5.1,-2.7,1296,1295,1297,1298,1297,23.1,0.03,0.0003,-0.0003,0.0004
18:25:52.064,3.3,0.8,6.8,2.0,4.8,8.4,1296,1281,1313,1305,1285,23.1,0.15,0.0003,-0.0003,0.0004
18:25:52.173,3.1,0.6,7.2,-5.2,3.5,10.9,1296,1281,1313,1310,1286,23.1,0.02,0.0003,-0.0003,0.0004
18:25:52.256,3.1,0.9,7.2,1.4,8.8,1.2,1296,1289,1305,1295,1295,23.1,0.02,0.0003,-0.0003,0.0004
18:25:52.304,3.1,0.8,7.1,1.9,-5.7,0.0,1296,1297,1295,1303,1289,23.1,0.15,0.0004,-0.0004,0.0004
18:25:52.401,4.3,1.0,7.3,9.7,-3.5,3.2,1296,1293,1307,1299,1285,23.1,-0.01,0.0004,-0.0004,0.0004
18:25:52.503,4.5,0.7,7.4,5.2,-0.7,4.0,1297,1288,1307,1300,1290,23.1,0.16,0.0004,-0.0004,0.0004
18:25:52.581,4.7,1.1,7.1,6.9,9.9,-1.2,1297,1295,1305,1291,1297,23.1,-0.22,0.0004,-0.0004,0.0004
18:25:52.664,4.8,1.3,6.9,-2.6,-3.4,-2.7,1297,1297,1289,1303,1297,23.1,0.05,0.0004,-0.0004,0.0004
18:25:52.725,4.6,1.2,6.8,-1.0,4.1,-3.2,1296,1294,1302,1293,1298,23.1,0.05,0.0004,-0.0004,0.0004
18:25:52.816,4.0,1.4,7.1,-6.3,-4.4,2.2,1296,1290,1296,1308,1292,23.1,-0.02,0.0004,-0.0004,0.0004
18:25:52.919,3.8,0.9,7.1,-0.3,-4.9,3.9,1296,1290,1304,1302,1286,23.1,-0.17,0.0004,-0.0004,0.0004
18:25:52.976,4.1,0.5,7.0,1.1,-11.4,1.7,1296,1296,1294,1303,1286,23.1,0.03,0.0004,-0.0004,0.0004
18:25:53.065,3.8,0.5,7.0,1.9,0.1,0.0,1296,1296,1304,1294,1290,23.1,0.10,0.0004,-0.0004,0.0004
18:25:53.151,4.1,1.1,6.9,-6.3,3.4,-1.7,1296,1291,1295,1301,1301,23.1,0.10,0.0003,-0.0004,0.0004
18:25:53.183,4.1,1.3,7.2,5.2,15.1,0.9,1296,1286,1311,1298,1298,23.1,0.04,0.0003,-0.0004,0.0004
18:25:53.272,4.0,1.4,7.5,-6.4,-1.8,4.2,1296,1288,1296,1312,1288,23.1,-0.17,0.0003,-0.0004,0.0004
18:25:53.363,3.9,1.6,7.3,1.5,4.9,-1.0,1296,1295,1301,1296,1295,23.1,-0.02,0.0003,-0.0004,0.0004
18:25:53.427,4.3,2.1,7.2,1.4,5.9,-1.4,1296,1295,1297,1297,1295,23.1,-0.45,0.0003,-0.0003,0.0004
18:25:53.549,4.5,2.0,7.4,1.9,-5.1,5.8,1296,1290,1302,1308,1284,23.1,-0.05,0.0004,-0.0004,0.0004
18:25:53.588,4.5,1.9,7.0,2.8,-2.3,-3.6,1296,1298,1296,1294,1296,23.1,-0.05,0.0004,-0.0004,0.0004
18:25:53.671,4.7,2.2,6.7,2.0,1.6,-6.7,1296,1302,1290,1292,1300,23.1,-0.07,0.0004,-0.0003,0.0004
18:25:53.787,4.4,2.2,6.6,-7.8,-5.4,-4.8,1296,1299,1290,1299,1299,23.1,-0.04,0.0003,-0.0004,0.0004
18:25:53.824,4.8,2.1,6.7,4.6,4.8,-1.4,1296,1295,1303,1291,1295,23.1,0.21,0.0004,-0.0003,0.0004
18:25:53.943,4.9,1.8,6.7,-4.4,-8.1,4.4,1296,1290,1295,1304,1289,23.1,0.20,0.0004,-0.0004,0.0004
18:25:54.006,5.4,1.4,6.3,8.6,-5.9,-1.9,1296,1299,1299,1293,1293,23.1,0.20,0.0004,-0.0004,0.0003
18:25:54.065,6.4,1.7,6.0,-0.8,-5.9,-3.7,1297,1299,1289,1299,1297,23.1,-0.18,0.0004,-0.0004,0.0003
18:25:54.159,5.8,1.5,5.9,-4.9,0.7,0.5,1296,1292,1301,1296,1294,23.1,-0.07,0.0004,-0.0004,0.0003
18:25:54.224,5.7,1.8,5.4,-6.5,3.1,-4.1,1296,1295,1291,1296,1301,23.1,-0.27,0.0004,-0.0004,0.0003
18:25:54.351,5.0,1.7,5.1,-7.3,0.1,-8.7,1296,1303,1288,1291,1304,23.1,-0.14,0.0004,-0.0004,0.0003
18:25:54.391,5.0,1.9,5.3,-3.4,1.7,-1.8,1296,1295,1295,1297,1297,23.1,-0.06,0.0004,-0.0004,0.0003
18:25:54.499,4.8,1.5,5.4,-3.5,-5.5,4.8,1296,1289,1303,1305,1287,23.1,-0.06,0.0003,-0.0004,0.0003
18:25:54.581,5.0,2.0,4.9,5.1,1.9,-3.2,1296,1298,1296,1294,1296,23.1,0.03,0.0004,-0.0004,0.0003
18:25:54.662,5.8,2.3,4.7,5.9,-3.4,-5.3,1296,1305,1289,1295,1295,23.1,-0.29,0.0004,-0.0004,0.0002
18:25:54.754,6.0,2.7,4.3,8.7,9.6,-3.0,1296,1296,1296,1284,1298,23.1,-0.01,0.0004,-0.0004,0.0002
18:25:54.792,6.5,2.9,3.7,-0.5,-4.2,-6.7,1296,1302,1282,1294,1302,23.1,0.07,0.0004,-0.0004,0.0002
18:25:54.895,6.5,2.7,3.7,2.9,2.1,-5.5,1296,1298,1298,1293,1302,23.1,0.15,0.0004,-0.0004,0.0002
18:25:54.993,6.6,2.3,3.9,-2.1,-6.9,4.1,1296,1288,1300,1306,1290,23.1,0.15,0.0004,-0.0005,0.0002
18:25:55.026,6.5,1.6,3.6,0.9,-7.3,-0.6,1296,1295,1297,1297,1295,23.1,-0.10,0.0004,-0.0005,0.0002
18:25:55.133,7.0,1.7,3.1,4.7,-0.7,-7.9,1296,1305,1289,1287,1303,23.1,0.10,0.0004,-0.0005,0.0002
18:25:55.194,6.8,1.9,3.1,-1.4,-2.4,-4.0,1296,1302,1290,1296,1296,23.1,-0.23,0.0004,-0.0005,0.0002
18:25:55.312,6.7,2.4,2.6,4.3,10.3,-2.8,1296,1298,1294,1287,1297,23.1,-0.05,0.0004,-0.0005,0.0002
18:25:55.344,6.2,2.3,2.0,-3.9,-0.5,-9.5,1296,1306,1284,1288,1306,23.1,-0.05,0.0004,-0.0005,0.0002
18:25:55.496,6.2,3.2,2.1,-2.3,6.1,-4.0,1296,1300,1288,1298,1298,23.1,-0.01,0.0004,-0.0005,0.0001
18:25:55.503,5.9,3.4,2.5,-0.2,8.2,6.4,1296,1284,1304,1298,1290,23.1,-0.19,0.0004,-0.0005,0.0001
18:25:55.588,6.0,3.6,2.2,-0.9,0.0,3.6,1296,1290,1298,1298,1292,23.1,-0.10,0.0004,-0.0004,0.0001
18:25:55.682,6.0,3.2,1.5,0.7,-8.0,-7.4,1296,1306,1286,1290,1302,23.1,-0.04,0.0004,-0.0005,0.0001
18:25:55.764,6.0,3.2,1.3,6.0,-1.3,-8.4,1296,1306,1291,1287,1301,23.1,0.21,0.0004,-0.0005,0.0001
18:25:55.838,6.4,3.0,0.8,1.0,-4.6,-3.6,1296,1298,1289,1294,1301,23.1,0.21,0.0004,-0.0005,0.0001
18:25:55.962,6.3,2.9,0.3,1.3,0.4,-10.0,1296,1306,1288,1282,1308,23.1,0.17,0.0004,-0.0005,0.0000
18:25:55.999,6.1,2.7,0.1,-7.4,-4.4,-8.7,1296,1303,1288,1291,1308,23.1,0.14,0.0004,-0.0005,0.0000
18:25:56.073,6.0,2.8,-0.0,0.6,3.9,0.3,1296,1294,1300,1292,1298,23.1,0.01,0.0004,-0.0005,0.0000
18:25:56.468,5.7,2.6,-0.7,-3.7,-6.0,-5.8,1296,1304,1288,1292,1300,23.1,-0.11,0.0004,-0.0006,0.0000
18:25:56.966,5.8,3.0,-1.3,0.4,1.2,-11.3,1296,1312,1282,1284,1308,23.1,-0.02,0.0004,-0.0006,0.0000
18:25:56.971,5.0,2.9,-1.2,-9.1,1.8,-6.6,1296,1302,1290,1286,1306,23.1,0.01,0.0004,-0.0006,0.0000
18:25:56.973,4.7,3.1,-0.8,-13.2,-1.4,7.5,1296,1286,1298,1302,1290,23.1,-0.21,0.0004,-0.0005,0.0000
18:25:56.975,4.2,2.6,-0.7,-4.2,-2.5,5.0,1296,1288,1300,1298,1292,23.1,-0.26,0.0004,-0.0005,0.0001
18:25:56.978,4.2,2.2,-1.2,0.5,-8.1,-1.0,1296,1299,1293,1297,1295,23.1,-0.03,0.0004,-0.0006,0.0000
18:25:56.980,5.2,2.2,-1.5,8.6,-7.5,-6.0,1296,1309,1287,1291,1297,23.1,0.15,0.0004,-0.0006,0.0000
18:25:56.983,6.3,2.5,-1.5,8.4,-1.5,0.4,1296,1299,1297,1295,1293,23.1,0.15,0.0004,-0.0005,0.0000
18:25:56.986,6.8,2.9,-1.3,10.6,14.1,2.2,1296,1292,1305,1291,1296,23.1,-0.11,0.0004,-0.0005,0.0000
18:25:56.988,7.6,3.8,-1.2,11.3,18.0,1.7,1296,1290,1305,1291,1299,23.1,-0.07,0.0004,-0.0005,0.0000
18:25:56.991,7.2,4.2,-1.4,-0.3,6.8,-2.2,1296,1295,1291,1297,1301,23.1,-0.07,0.0004,-0.0005,0.0000
18:25:57.030,6.8,4.2,-1.4,-3.3,3.3,-4.1,1296,1299,1293,1292,1302,23.1,0.08,0.0004,-0.0005,0.0000
18:25:57.111,6.9,4.3,-1.3,-2.7,-2.7,-0.8,1296,1297,1293,1301,1295,23.1,-0.02,0.0004,-0.0005,0.0000
18:25:57.193,6.5,3.6,-1.0,-5.9,-6.1,4.9,1296,1289,1303,1301,1291,23.1,-0.02,0.0004,-0.0005,0.0000
18:25:57.303,6.5,3.4,-1.2,-0.4,-0.1,2.7,1296,1291,1301,1297,1295,23.1,0.21,0.0004,-0.0005,0.0000
18:25:57.345,6.5,3.2,-1.6,0.9,-7.6,-2.9,1296,1303,1291,1295,1295,23.1,0.04,0.0004,-0.0006,-0.0000
18:25:57.440,6.3,3.3,-1.6,1.1,2.0,-5.5,1296,1303,1294,1289,1300,23.1,-0.10,0.0004,-0.0006,-0.0000
18:25:57.534,6.5,3.7,-1.6,-2.3,4.2,0.4,1296,1295,1295,1297,1297,23.1,0.11,0.0003,-0.0005,-0.0000
18:25:57.601,5.9,3.6,-1.8,-8.0,3.4,-2.6,1296,1295,1295,1291,1303,23.1,0.11,0.0003,-0.0005,-0.0000
18:25:57.733,5.9,3.7,-1.7,-3.4,-3.8,-1.3,1296,1300,1293,1300,1294,23.1,-0.04,0.0003,-0.0005,-0.0000
18:25:57.744,5.5,3.3,-1.3,-0.5,-1.1,8.0,1296,1286,1306,1300,1288,23.1,0.09,0.0003,-0.0005,0.0000
18:25:57.832,5.4,3.0,-1.3,-4.6,-10.9,6.9,1296,1293,1293,1302,1288,23.1,0.02,0.0003,-0.0005,0.0000
18:25:57.920,5.1,2.7,-1.3,-0.3,-4.4,0.6,1296,1299,1299,1293,1293,23.1,0.09,0.0002,-0.0006,0.0000
18:25:57.992,4.9,3.0,-1.0,0.8,-2.3,4.0,1296,1293,1301,1301,1289,23.1,-0.17,0.0002,-0.0006,0.0000
18:25:58.082,4.5,2.3,-0.4,-6.9,-4.3,8.5,1297,1287,1307,1307,1287,23.1,-0.17,0.0002,-0.0006,0.0001
18:25:58.171,4.7,2.7,0.1,6.8,5.6,2.3,1297,1295,1305,1295,1293,23.1,-0.00,0.0002,-0.0006,0.0001
18:25:58.247,4.2,3.2,0.5,-1.4,1.5,7.1,1297,1286,1302,1310,1290,23.1,-0.03,0.0002,-0.0006,0.0001
18:25:58.343,4.4,3.4,0.9,3.6,5.2,2.1,1297,1293,1303,1298,1294,23.1,-0.02,0.0003,-0.0005,0.0001
18:25:58.418,4.9,3.6,1.4,4.4,7.6,7.0,1297,1286,1310,1302,1290,23.1,-0.14,0.0003,-0.0005,0.0002
18:25:58.474,5.0,3.6,1.6,-1.5,-4.3,7.2,1297,1289,1301,1305,1289,23.1,-0.13,0.0003,-0.0005,0.0002
18:25:58.559,4.8,3.3,1.0,2.3,-1.0,-5.3,1297,1303,1297,1289,1301,23.1,-0.13,0.0003,-0.0005,0.0002
18:25:58.625,4.8,3.7,1.1,3.9,3.6,-4.1,1297,1303,1296,1290,1298,23.1,0.14,0.0003,-0.0005,0.0002
18:25:58.724,5.1,4.2,1.4,-4.1,5.9,6.2,1297,1287,1303,1306,1293,23.1,-0.15,0.0003,-0.0005,0.0002
18:25:58.803,4.1,3.8,1.2,-12.5,-4.1,-3.8,1297,1299,1293,1295,1301,23.1,-0.38,0.0003,-0.0005,0.0002
18:25:58.919,3.9,3.6,1.1,5.6,-4.3,-5.5,1297,1308,1294,1290,1296,23.1,0.01,0.0003,-0.0005,0.0002
18:25:58.949,4.1,3.4,1.6,-0.1,-5.9,6.7,1297,1292,1303,1306,1287,23.1,0.01,0.0003,-0.0005,0.0002
18:25:59.027,4.6,3.8,1.6,6.4,11.1,7.5,1297,1290,1308,1300,1292,23.1,0.19,0.0004,-0.0005,0.0002
18:25:59.118,5.0,4.1,1.3,2.8,2.5,-1.2,1297,1298,1296,1298,1296,23.1,0.10,0.0004,-0.0005,0.0002
18:25:59.201,5.4,5.1,1.1,7.2,10.4,-5.5,1297,1303,1294,1290,1300,23.1,0.03,0.0004,-0.0005,0.0002
18:25:59.263,5.6,5.5,1.6,5.1,10.9,0.6,1297,1294,1306,1290,1298,23.1,-0.07,0.0004,-0.0005,0.0002
18:25:59.350,5.6,5.1,1.7,-0.9,-4.8,4.9,1296,1290,1299,1306,1289,23.1,-0.18,0.0004,-0.0005,0.0002
18:25:59.434,5.5,4.6,1.5,4.0,-4.4,-1.1,1296,1299,1299,1293,1293,23.1,-0.18,0.0004,-0.0005,0.0002
18:25:59.504,5.7,4.8,1.9,-6.6,-8.2,0.2,1296,1299,1295,1303,1291,23.1,0.02,0.0004,-0.0005,0.0002
18:25:59.594,5.0,5.1,2.0,-3.2,4.9,4.4,1297,1292,1306,1298,1290,23.1,0.09,0.0004,-0.0005,0.0002
18:25:59.668,4.3,4.3,2.0,-12.2,-8.6,-1.8,1296,1294,1292,1300,1298,23.1,0.02,0.0004,-0.0005,0.0002
18:25:59.797,4.3,4.7,2.3,-0.5,2.4,-0.4,1296,1294,1297,1295,1295,23.1,-0.09,0.0004,-0.0005,0.0003
18:25:59.833,4.1,4.6,3.2,-4.1,2.4,12.6,1296,1278,1313,1311,1281,23.1,-0.09,0.0004,-0.0005,0.0003
18:25:59.906,4.2,4.5,3.4,-0.2,-4.2,10.3,1296,1285,1307,1311,1281,23.1,-0.07,0.0004,-0.0005,0.0003
18:25:59.993,4.5,4.1,3.3,5.9,-6.5,-1.7,1296,1301,1297,1295,1291,23.1,0.00,0.0004,-0.0005,0.0003
18:26:00.081,4.6,3.8,3.3,4.1,-1.5,-0.8,1296,1297,1299,1293,1295,23.1,-0.01,0.0004,-0.0005,0.0003
18:26:00.154,5.0,4.8,3.2,5.4,10.2,-4.6,1296,1300,1294,1292,1300,23.1,-0.25,0.0004,-0.0005,0.0003
18:26:00.249,5.1,5.0,3.3,-0.6,5.2,1.0,1296,1290,1300,1298,1296,23.1,0.11,0.0004,-0.0005,0.0003
18:26:00.327,5.3,5.2,3.4,5.0,3.5,-2.1,1296,1297,1299,1293,1295,23.1,0.11,0.0004,-0.0005,0.0003
18:26:00.431,5.0,5.0,3.5,-7.0,-4.2,0.4,1296,1292,1294,1302,1296,23.1,0.10,0.0004,-0.0005,0.0003
18:26:00.485,5.0,4.8,3.7,-2.0,-3.2,4.9,1296,1288,1304,1304,1288,23.1,0.18,0.0004,-0.0005,0.0003
18:26:00.544,4.5,4.0,3.4,-4.2,-15.7,-2.8,1296,1302,1290,1300,1292,23.1,-0.08,0.0004,-0.0005,0.0003
18:26:00.642,4.5,3.8,2.7,2.7,-6.9,-10.2,1296,1309,1287,1284,1303,23.1,0.04,0.0004,-0.0005,0.0003
18:26:00.739,4.4,3.6,2.6,-6.8,-3.4,-2.7,1296,1293,1290,1300,1302,23.1,0.07,0.0004,-0.0006,0.0003
18:26:00.856,4.1,3.3,2.4,-0.5,6.7,-0.6,1296,1293,1299,1287,1302,23.1,0.07,0.0004,-0.0005,0.0003
18:26:00.863,4.0,3.6,1.9,-4.4,-0.5,-7.4,1296,1303,1283,1294,1303,23.1,-0.12,0.0004,-0.0005,0.0002
18:26:00.976,4.6,4.4,1.7,1.8,4.5,-5.6,1296,1303,1289,1293,1299,23.1,-0.07,0.0004,-0.0005,0.0002
18:26:01.034,4.0,4.5,1.4,-1.9,6.7,-1.8,1296,1296,1295,1289,1298,23.1,-0.02,0.0004,-0.0005,0.0002
18:26:01.127,3.9,4.4,0.8,-6.5,-4.6,-5.6,1297,1303,1283,1291,1303,23.1,0.03,0.0003,-0.0005,0.0002
18:26:01.208,3.7,4.2,0.2,5.6,1.4,-12.9,1296,1309,1288,1283,1308,23.1,0.03,0.0003,-0.0005,0.0001
18:26:01.270,4.0,4.0,0.4,-0.8,-5.4,0.3,1297,1296,1292,1299,1296,23.1,-0.01,0.0003,-0.0005,0.0002
18:26:01.363,4.5,3.9,0.2,8.3,0.9,4.0,1296,1294,1302,1298,1290,23.1,-0.01,0.0004,-0.0005,0.0001
18:26:01.435,4.6,3.6,-0.4,7.2,-3.0,-6.7,1296,1308,1294,1284,1298,23.1,-0.20,0.0004,-0.0005,0.0001
18:26:01.520,5.3,3.8,-0.7,2.1,-4.1,-8.1,1296,1305,1290,1296,1305,23.1,-0.22,0.0004,-0.0005,0.0001
18:26:01.629,5.6,3.1,-1.0,8.0,-5.5,-2.9,1296,1299,1297,1287,1299,23.1,0.05,0.0004,-0.0005,0.0001
18:26:01.684,5.7,2.0,-1.3,0.7,-15.9,-4.4,1296,1302,1284,1298,1300,23.1,0.05,0.0004,-0.0005,0.0001
18:26:01.771,6.3,2.3,-1.6,5.2,3.5,-2.5,1296,1297,1299,1287,1301,23.1,-0.05,0.0004,-0.0005,0.0001
18:26:01.834,5.8,2.0,-1.8,-5.7,0.9,2.6,1297,1293,1299,1298,1296,23.1,-0.22,0.0004,-0.0005,0.0001
18:26:01.926,5.6,2.5,-2.5,-2.6,7.1,-7.0,1296,1304,1288,1286,1306,23.1,-0.24,0.0004,-0.0005,0.0001
18:26:02.408,5.0,2.5,-2.8,-6.1,3.4,-11.7,1296,1306,1284,1286,1306,23.1,-0.30,0.0004,-0.0005,0.0001
18:26:02.413,5.2,3.2,-2.4,-3.8,8.0,1.9,1297,1294,1296,1300,1298,23.1,-0.30,0.0004,-0.0005,0.0001
18:26:02.432,5.2,3.4,-2.4,4.7,8.4,5.0,1296,1292,1300,1291,1293,23.1,-0.35,0.0004,-0.0005,0.0001
18:26:02.443,5.4,3.4,-2.7,0.8,-4.7,1.4,1296,1297,1289,1294,1293,23.1,-0.03,0.0004,-0.0005,0.0001
18:26:02.447,5.4,3.4,-2.8,3.7,0.4,-3.3,1296,1301,1295,1289,1299,23.1,-0.40,0.0004,-0.0005,0.0000
18:26:02.449,5.8,3.7,-2.4,4.8,5.2,2.8,1296,1294,1302,1296,1292,23.1,-0.27,0.0004,-0.0005,0.0001
18:26:02.495,6.0,3.8,-1.8,1.5,-3.0,6.6,1296,1291,1299,1309,1285,23.1,-0.12,0.0004,-0.0005,0.0001
18:26:02.544,5.8,3.4,-1.3,-3.9,-5.0,6.6,1296,1287,1303,1305,1289,23.1,-0.12,0.0004,-0.0005,0.0001
18:26:02.656,5.4,3.8,-1.0,1.1,6.8,3.4,1296,1290,1304,1296,1294,23.1,-0.22,0.0004,-0.0005,0.0002
18:26:02.710,5.2,4.0,-0.8,-4.0,1.8,0.5,1296,1294,1294,1298,1298,23.1,-0.29,0.0004,-0.0005,0.0002
18:26:02.794,5.0,4.1,-0.0,-0.1,3.0,6.6,1296,1288,1306,1302,1288,23.1,-0.16,0.0004,-0.0005,0.0002
18:26:02.875,4.9,4.0,0.6,-3.6,-4.8,13.5,1296,1282,1308,1310,1282,23.1,-0.21,0.0004,-0.0004,0.0002
18:26:02.991,5.0,3.7,0.8,4.4,-3.0,4.7,1296,1292,1306,1298,1288,23.1,-0.04,0.0004,-0.0005,0.0002
18:26:03.044,5.4,3.7,0.8,9.9,-2.4,0.6,1296,1299,1301,1293,1291,23.1,-0.04,0.0004,-0.0005,0.0002
18:26:03.146,5.7,3.9,1.2,-0.7,-2.7,1.6,1296,1292,1301,1308,1294,23.1,-0.09,0.0004,-0.0005,0.0002
18:26:03.266,5.3,3.8,1.9,-2.8,5.5,5.0,1296,1284,1310,1305,1294,23.1,-0.12,0.0004,-0.0005,0.0002
18:26:03.269,5.2,4.3,2.4,-6.4,7.1,11.2,1296,1279,1309,1309,1283,23.1,-0.08,0.0004,-0.0004,0.0003
18:26:03.377,4.9,4.1,2.4,-12.4,-5.4,2.5,1296,1287,1293,1309,1297,23.1,-0.18,0.0004,-0.0004,0.0003
18:26:03.448,4.4,3.9,2.5,-0.3,-0.2,0.8,1296,1296,1304,1294,1292,23.1,-0.18,0.0004,-0.0004,0.0003
18:26:03.545,5.0,4.1,2.9,4.3,3.8,6.5,1296,1287,1307,1303,1287,23.1,-0.16,0.0005,-0.0004,0.0003
18:26:03.605,5.4,4.1,3.0,6.6,-1.4,7.0,1296,1287,1307,1304,1287,23.1,-0.18,0.0005,-0.0004,0.0003
18:26:03.673,5.4,3.8,2.8,0.5,-7.1,-1.9,1296,1299,1295,1297,1293,23.1,0.07,0.0005,-0.0005,0.0003
18:26:03.768,5.2,3.5,2.6,0.9,-3.0,-4.3,1296,1302,1296,1290,1296,23.1,-0.13,0.0005,-0.0005,0.0003
18:26:03.845,5.0,3.7,2.5,-3.0,0.8,-5.2,1296,1301,1292,1293,1299,23.1,-0.02,0.0005,-0.0005,0.0003
18:26:03.944,4.1,3.2,2.6,-10.1,-4.9,1.0,1296,1292,1296,1300,1296,23.1,-0.02,0.0004,-0.0005,0.0003
18:26:04.074,4.0,2.9,2.8,0.5,1.9,2.4,1296,1290,1306,1294,1294,23.1,-0.12,0.0004,-0.0005,0.0003
18:26:04.079,4.3,2.9,2.8,-1.4,-3.0,1.6,1296,1292,1294,1304,1294,23.1,-0.08,0.0004,-0.0005,0.0003
18:26:04.155,4.8,3.3,2.8,11.5,9.4,2.4,1296,1292,1308,1292,1292,23.1,-0.08,0.0005,-0.0005,0.0003
18:26:04.271,5.0,3.5,2.7,5.4,3.4,-0.4,1296,1297,1299,1295,1293,23.1,0.01,0.0005,-0.0005,0.0003
18:26:04.304,5.7,4.0,2.5,5.9,3.0,-3.1,1296,1300,1292,1296,1296,23.1,0.01,0.0005,-0.0005,0.0003
18:26:04.454,5.3,3.7,2.2,-3.8,0.2,-6.1,1296,1300,1292,1291,1304,23.1,-0.09,0.0005,-0.0005,0.0003
18:26:04.482,5.2,3.9,2.2,-4.7,-3.8,-3.4,1296,1301,1292,1301,1295,23.1,-0.05,0.0005,-0.0005,0.0003
18:26:04.568,4.8,3.4,2.0,-1.9,-0.9,2.1,1296,1294,1298,1293,1297,23.1,0.02,0.0005,-0.0005,0.0003
18:26:04.643,4.6,3.0,1.3,-4.6,-12.4,-5.0,1296,1305,1282,1293,1297,23.1,-0.06,0.0005,-0.0005,0.0003
18:26:04.705,4.3,2.9,0.7,3.1,-0.7,-9.8,1296,1311,1293,1281,1302,23.1,0.03,0.0005,-0.0005,0.0003
18:26:04.791,4.4,2.7,0.5,-2.6,-3.2,-2.0,1296,1295,1291,1297,1299,23.1,0.03,0.0005,-0.0005,0.0003
18:26:04.869,4.6,2.8,0.3,-0.2,-1.1,2.1,1296,1294,1298,1298,1294,23.1,-0.08,0.0005,-0.0005,0.0002
18:26:04.984,4.2,2.6,-0.2,3.4,1.1,-7.0,1296,1306,1292,1284,1302,23.1,-0.04,0.0005,-0.0005,0.0002
18:26:05.045,3.9,2.7,-0.3,-2.0,1.0,-5.5,1296,1303,1291,1289,1301,23.1,0.13,0.0004,-0.0005,0.0002
18:26:05.130,4.6,3.0,-0.6,3.3,5.2,-2.4,1296,1296,1297,1291,1301,23.1,0.18,0.0005,-0.0004,0.0001
18:26:05.223,4.5,2.6,-1.1,0.3,-2.2,-6.6,1296,1302,1290,1286,1306,23.1,0.16,0.0005,-0.0005,0.0001
18:26:05.293,4.6,2.5,-1.6,4.9,-4.5,-9.6,1296,1311,1285,1287,1305,23.1,0.16,0.0005,-0.0004,0.0001
18:26:05.379,4.8,2.7,-1.7,4.8,5.6,-2.1,1297,1298,1300,1290,1300,23.1,0.08,0.0005,-0.0004,0.0001
18:26:05.443,4.6,3.2,-1.9,-4.3,4.3,-1.4,1297,1297,1295,1297,1299,23.1,0.21,0.0005,-0.0004,0.0001
18:26:05.533,4.7,3.8,-2.6,-1.0,6.1,-7.4,1297,1305,1287,1289,1307,23.1,0.08,0.0005,-0.0004,0.0000
18:26:05.619,4.4,4.0,-2.9,2.0,6.0,-10.4,1297,1308,1289,1288,1307,23.1,-0.04,0.0005,-0.0004,0.0000
18:26:05.702,4.7,4.1,-3.0,-1.9,-2.7,1.1,1297,1296,1290,1298,1298,23.1,-0.04,0.0005,-0.0004,0.0000
18:26:05.760,4.9,3.9,-3.5,2.2,0.1,-5.0,1297,1304,1292,1288,1304,23.1,0.11,0.0005,-0.0004,0.0000
18:26:05.869,4.8,4.1,-4.1,5.4,-2.4,-6.1,1297,1309,1289,1289,1303,23.1,0.14,0.0005,-0.0004,-0.0000
18:26:05.904,4.7,4.3,-4.4,2.6,2.7,-3.5,1297,1303,1294,1289,1301,23.1,-0.04,0.0005,-0.0004,-0.0000
18:26:06.036,4.2,3.9,-4.7,-8.4,-4.2,-4.0,1297,1301,1289,1293,1305,23.1,-0.06,0.0005,-0.0004,-0.0001
18:26:06.066,4.1,3.9,-4.7,-5.1,-5.6,-2.1,1297,1300,1289,1300,1300,23.1,-0.08,0.0005,-0.0004,-0.0001
18:26:06.156,4.3,4.0,-4.1,7.7,5.5,2.9,1297,1296,1305,1297,1294,23.1,-0.08,0.0005,-0.0004,-0.0001
18:26:06.255,4.9,4.4,-3.8,1.3,4.3,10.4,1297,1292,1305,1302,1292,23.1,-0.08,0.0005,-0.0004,-0.0001
18:26:06.373,5.2,5.3,-4.2,4.2,9.1,-3.2,1297,1302,1292,1292,1302,23.1,-0.33,0.0005,-0.0004,-0.0001
18:26:06.395,4.3,5.5,-4.3,-6.2,3.5,-3.5,1297,1301,1291,1293,1303,23.1,-0.09,0.0005,-0.0003,-0.0001
18:26:06.555,4.0,5.7,-3.9,-3.8,5.0,-0.0,1297,1295,1299,1295,1299,23.1,-0.37,0.0005,-0.0003,-0.0001
18:26:06.561,4.0,5.5,-3.8,-4.2,-5.9,4.6,1297,1294,1296,1305,1292,23.1,0.01,0.0004,-0.0003,-0.0000
18:26:06.632,4.1,5.1,-3.9,2.1,-3.1,1.1,1297,1297,1299,1295,1297,23.1,0.01,0.0005,-0.0004,-0.0000
18:26:06.784,4.2,4.7,-3.7,-5.0,-13.8,-0.6,1297,1301,1291,1304,1292,23.1,-0.13,0.0004,-0.0004,-0.0000
18:26:06.786,4.0,4.8,-4.0,1.2,2.5,-4.2,1296,1302,1294,1288,1302,23.1,-0.14,0.0004,-0.0004,-0.0000
18:26:06.882,3.7,4.3,-3.9,-1.4,-2.8,-3.0,1296,1300,1292,1292,1300,23.1,-0.03,0.0004,-0.0004,-0.0001
18:26:06.956,3.6,4.7,-3.8,5.2,2.7,0.1,1296,1297,1297,1295,1295,23.1,-0.05,0.0005,-0.0004,-0.0000
18:26:07.054,3.8,4.3,-3.6,-0.9,-4.6,4.8,1296,1289,1299,1303,1293,23.1,-0.05,0.0005,-0.0004,-0.0000
18:26:07.133,4.0,4.2,-3.7,5.6,1.6,-0.5,1296,1296,1300,1290,1298,23.1,-0.05,0.0005,-0.0004,-0.0000
18:26:07.212,4.3,4.2,-3.8,3.4,-5.7,-0.9,1296,1302,1290,1300,1292,23.1,-0.06,0.0005,-0.0004,-0.0000
18:26:07.269,4.1,3.9,-3.7,-1.4,-4.0,-1.0,1296,1299,1295,1293,1297,23.1,0.10,0.0005,-0.0004,-0.0000
18:26:07.361,3.7,4.1,-4.0,1.4,3.6,-4.2,1296,1302,1294,1286,1302,23.1,-0.07,0.0005,-0.0004,-0.0000
18:26:07.445,3.2,3.6,-4.2,-5.6,-2.7,-5.7,1296,1302,1286,1290,1304,23.1,-0.04,0.0005,-0.0004,-0.0001
18:26:07.854,3.2,4.3,-4.2,-0.1,5.5,-2.2,1296,1300,1292,1294,1298,23.1,-0.04,0.0005,-0.0004,-0.0001
18:26:07.863,2.5,4.4,-3.7,-7.2,1.8,8.0,1296,1284,1303,1307,1291,23.1,-0.18,0.0004,-0.0004,-0.0000
18:26:07.866,2.7,4.3,-3.5,3.7,2.3,7.9,1296,1286,1304,1300,1288,23.1,-0.11,0.0004,-0.0004,0.0000
18:26:07.875,2.9,4.4,-3.8,4.1,-0.4,-1.4,1296,1297,1293,1295,1299,23.1,0.04,0.0005,-0.0004,-0.0000
18:26:07.879,3.9,4.4,-4.2,8.3,-5.2,-6.4,1296,1311,1285,1289,1299,23.1,-0.27,0.0005,-0.0004,-0.0000
18:26:07.937,4.9,4.5,-4.1,5.4,-3.3,-1.8,1296,1301,1291,1295,1297,23.1,-0.27,0.0005,-0.0004,-0.0000
18:26:08.020,5.0,4.7,-3.7,-2.0,4.2,6.8,1296,1288,1304,1302,1290,23.1,-0.20,0.0005,-0.0004,0.0000
18:26:08.090,4.8,5.5,-4.0,2.5,10.4,0.3,1296,1297,1301,1291,1295,23.1,-0.17,0.0005,-0.0004,0.0000
18:26:08.188,5.1,5.7,-4.4,0.0,0.8,-5.8,1296,1303,1285,1291,1305,23.1,-0.05,0.0005,-0.0004,-0.0000
18:26:08.229,5.0,5.9,-4.4,1.4,5.1,-8.8,1296,1303,1288,1291,1305,23.1,0.19,0.0005,-0.0004,-0.0000
18:26:08.311,5.2,6.2,-4.2,-0.2,2.1,1.5,1296,1296,1294,1298,1296,23.1,0.07,0.0005,-0.0004,-0.0000
18:26:08.404,5.0,5.8,-4.2,-3.6,-7.7,1.0,1296,1298,1292,1300,1294,23.1,0.07,0.0005,-0.0004,-0.0000
18:26:08.524,5.1,6.2,-4.6,0.3,-0.7,-2.2,1296,1299,1293,1293,1299,23.1,0.12,0.0005,-0.0004,-0.0000
18:26:08.560,5.0,6.1,-4.8,-4.0,-0.6,-1.2,1296,1296,1296,1292,1300,23.1,0.05,0.0005,-0.0004,-0.0000
18:26:08.640,5.0,6.4,-5.3,-0.1,5.7,-2.3,1296,1298,1294,1290,1302,23.1,0.09,0.0005,-0.0004,-0.0000
18:26:08.729,4.5,6.5,-6.0,-4.1,3.3,-10.2,1296,1308,1284,1280,1312,23.1,0.15,0.0005,-0.0004,-0.0000
18:26:08.801,4.6,7.4,-5.7,-2.3,5.8,-1.3,1296,1299,1291,1295,1299,23.1,0.15,0.0005,-0.0004,-0.0000
18:26:08.905,4.0,7.0,-5.2,-10.1,-0.7,12.6,1296,1285,1303,1310,1286,23.1,0.15,0.0005,-0.0004,-0.0000
18:26:09.048,3.6,6.7,-5.1,-3.5,-1.4,7.1,1296,1288,1303,1302,1290,23.1,0.00,0.0005,-0.0004,-0.0000
18:26:09.052,3.6,5.9,-5.4,4.4,-12.3,-1.7,1296,1304,1293,1293,1293,23.1,0.09,0.0005,-0.0004,-0.0000
18:26:09.103,4.3,5.3,-5.3,14.6,-7.0,-1.3,1296,1304,1298,1289,1294,23.1,0.11,0.0005,-0.0004,-0.0000
18:26:09.223,5.3,5.2,-5.2,15.9,0.6,5.2,1296,1294,1303,1296,1291,23.1,0.28,0.0005,-0.0004,-0.0000
18:26:09.308,6.2,5.4,-5.5,5.1,1.1,-3.0,1296,1297,1287,1295,1305,23.1,0.28,0.0005,-0.0004,-0.0000
18:26:09.345,6.1,5.4,-5.4,-1.9,2.4,-6.4,1296,1299,1289,1293,1305,23.1,0.22,0.0005,-0.0004,-0.0000
18:26:09.423,5.9,5.7,-5.1,-5.9,3.8,1.8,1296,1293,1293,1299,1299,23.1,0.01,0.0005,-0.0004,-0.0000
18:26:09.536,5.2,5.4,-5.0,-12.8,1.6,1.5,1296,1292,1292,1300,1300,23.1,0.14,0.0004,-0.0004,-0.0000
18:26:09.600,4.9,5.9,-5.3,0.5,9.2,-2.6,1296,1300,1296,1288,1300,23.1,-0.16,0.0004,-0.0004,-0.0000
18:26:09.720,5.4,6.9,-5.2,-1.9,2.5,-2.3,1296,1303,1289,1296,1296,23.1,0.05,0.0004,-0.0004,-0.0000
18:26:09.762,5.1,7.3,-5.3,-3.1,6.2,-0.1,1296,1297,1297,1291,1297,23.1,0.05,0.0004,-0.0003,-0.0000
18:26:09.833,4.6,7.0,-5.6,-10.5,-8.1,0.3,1296,1297,1287,1297,1297,23.1,0.02,0.0004,-0.0003,-0.0000
18:26:09.903,4.2,6.6,-6.0,-0.4,-1.5,-6.1,1296,1305,1293,1283,1305,23.1,-0.12,0.0004,-0.0003,-0.0001
18:26:10.003,4.1,6.2,-5.5,-8.0,-11.0,3.9,1296,1294,1293,1299,1292,23.1,0.03,0.0004,-0.0003,-0.0001
18:26:10.126,4.5,5.9,-5.0,6.5,0.4,10.0,1296,1285,1309,1299,1285,23.1,-0.01,0.0004,-0.0004,-0.0000
18:26:10.155,5.0,5.9,-4.8,5.7,-2.5,8.9,1296,1289,1303,1302,1285,23.1,-0.01,0.0004,-0.0004,-0.0000
18:26:10.262,5.1,5.7,-4.9,4.2,-1.8,-0.5,1296,1299,1297,1293,1295,23.1,0.18,0.0004,-0.0004,-0.0001
18:26:10.306,5.3,6.0,-5.1,6.9,2.9,-5.1,1296,1303,1291,1287,1301,23.1,0.25,0.0005,-0.0003,-0.0001
18:26:10.444,5.8,6.3,-4.9,9.9,5.7,0.7,1296,1298,1302,1290,1294,23.1,0.07,0.0005,-0.0003,-0.0001
18:26:10.531,6.5,6.3,-4.8,4.1,-0.1,6.0,1296,1291,1299,1301,1291,23.1,0.27,0.0005,-0.0003,-0.0000
18:26:10.545,6.4,6.1,-4.8,-2.1,3.2,-2.7,1330,1304,1302,1306,1304,23.1,0.21,0.0005,-0.0003,-0.0000
18:26:10.650,6.8,6.5,-4.3,2.0,4.0,2.8,1331,1320,1318,1322,1320,23.1,0.21,0.0005,-0.0003,-0.0000
18:26:10.735,6.6,6.1,-3.6,-2.1,2.7,10.3,1330,1314,1334,1336,1324,23.1,0.23,0.0005,-0.0003,-0.0000
18:26:10.823,6.5,6.0,-3.5,-5.2,-7.4,7.2,1330,1326,1330,1336,1324,23.1,0.21,0.0005,-0.0003,-0.0000
18:26:10.901,6.3,6.4,-3.2,-0.1,3.3,1.9,1331,1331,1333,1331,1329,23.1,0.02,0.0005,-0.0003,0.0000
18:26:10.944,6.2,6.1,-2.9,2.7,2.6,4.8,1330,1324,1341,1329,1326,23.1,-0.09,0.0005,-0.0003,0.0000
18:26:11.056,6.1,6.0,-2.8,2.5,6.0,5.5,1330,1322,1341,1328,1326,23.1,0.15,0.0005,-0.0003,0.0001
18:26:11.125,5.9,6.1,-2.9,-3.6,3.1,0.6,1330,1330,1330,1330,1330,23.1,0.15,0.0004,-0.0003,0.0001
18:26:11.201,5.3,5.9,-2.9,-5.2,-3.3,0.8,1330,1330,1328,1332,1330,23.1,0.12,0.0004,-0.0003,0.0001
18:26:11.263,5.7,5.8,-2.4,-6.6,-0.7,8.1,1330,1318,1336,1342,1324,23.1,-0.08,0.0004,-0.0003,0.0001
18:26:11.350,5.4,5.8,-2.2,-6.6,-1.2,-1.1,1330,1329,1328,1331,1332,23.1,0.18,0.0004,-0.0003,0.0001
18:26:11.443,5.3,5.3,-1.4,-3.5,-4.6,11.2,1330,1316,1344,1344,1316,23.1,0.20,0.0004,-0.0003,0.0001
18:26:11.508,4.8,5.0,-1.2,0.9,0.5,2.3,1330,1331,1343,1329,1323,23.1,0.20,0.0004,-0.0003,0.0001
18:26:11.614,4.5,4.7,-0.4,1.0,3.9,11.6,1330,1315,1348,1334,1318,23.1,0.24,0.0004,-0.0003,0.0001
18:26:11.731,4.5,4.7,-0.5,2.1,2.2,1.6,1330,1328,1334,1330,1328,23.1,0.17,0.0004,-0.0003,0.0001
18:26:11.744,4.5,5.2,0.0,0.8,3.5,6.0,1330,1324,1338,1338,1320,23.1,0.15,0.0004,-0.0003,0.0001
18:26:11.845,4.5,5.4,0.2,0.3,-4.0,4.8,1330,1323,1331,1339,1325,23.1,0.21,0.0004,-0.0003,0.0001
18:26:11.905,5.5,5.8,0.6,4.5,-4.3,4.7,1330,1328,1332,1339,1320,23.1,0.14,0.0004,-0.0003,0.0002
18:26:11.984,6.0,5.5,0.3,6.2,-3.5,2.2,1330,1328,1333,1333,1327,23.1,0.14,0.0005,-0.0003,0.0002
18:26:12.103,6.8,5.4,0.4,16.1,2.6,-3.0,1330,1334,1337,1326,1331,23.1,0.05,0.0005,-0.0003,0.0002
18:26:12.225,7.3,5.2,0.3,9.2,-0.3,3.8,1330,1326,1337,1332,1324,23.1,0.02,0.0005,-0.0004,0.0002
18:26:12.227,6.8,5.5,0.1,-2.9,1.8,-1.7,1330,1332,1330,1328,1330,23.1,0.12,0.0005,-0.0003,0.0001
18:26:12.350,6.6,5.4,0.4,-5.6,4.6,3.5,1330,1320,1338,1332,1330,23.1,0.07,0.0005,-0.0003,0.0002
18:26:12.403,6.4,5.7,0.3,-3.2,1.9,2.6,1331,1327,1333,1335,1329,23.1,0.28,0.0004,-0.0003,0.0002
18:26:12.531,6.3,5.9,0.7,-3.9,3.8,1.9,1331,1326,1334,1334,1330,23.1,0.28,0.0004,-0.0003,0.0002
18:26:12.563,6.8,5.8,0.8,1.8,-2.5,1.2,1331,1327,1331,1335,1331,23.1,0.14,0.0004,-0.0003,0.0002
18:26:12.640,7.4,5.8,1.3,5.6,0.4,8.1,1331,1320,1342,1342,1320,23.1,-0.09,0.0005,-0.0003,0.0002
18:26:12.705,7.9,6.0,0.9,3.1,3.1,-6.5,1331,1336,1326,1326,1336,23.1,0.11,0.0005,-0.0003,0.0002
18:26:12.821,8.3,6.5,1.5,0.1,5.5,7.6,1331,1320,1340,1342,1322,23.1,0.07,0.0005,-0.0002,0.0002
18:26:12.865,8.3,7.0,1.2,-4.9,6.1,-2.4,1331,1329,1327,1333,1335,23.1,0.07,0.0005,-0.0002,0.0002
18:26:13.299,8.2,7.6,1.7,-8.1,10.0,3.5,1331,1322,1336,1336,1330,23.1,0.05,0.0005,-0.0002,0.0002
18:26:13.302,8.3,7.8,1.9,-4.8,4.7,5.8,1331,1322,1337,1339,1327,23.1,0.08,0.0005,-0.0002,0.0002
18:26:13.315,8.6,8.1,2.3,-1.4,0.3,4.4,1331,1330,1338,1336,1320,23.1,0.09,0.0004,-0.0001,0.0003
18:26:13.321,7.9,7.3,2.3,-2.7,-6.9,3.6,1331,1325,1337,1335,1327,23.1,-0.01,0.0004,-0.0002,0.0003
18:26:13.322,7.8,6.8,2.7,-3.3,-9.1,0.8,1331,1327,1335,1335,1327,23.1,0.04,0.0004,-0.0002,0.0003
18:26:13.361,8.0,6.5,3.0,2.4,-3.0,11.4,1331,1321,1343,1341,1319,23.1,0.04,0.0004,-0.0002,0.0003
18:26:13.429,8.4,6.8,2.6,3.7,0.7,-6.2,1331,1337,1327,1326,1335,23.1,0.07,0.0005,-0.0002,0.0002
18:26:13.548,8.4,6.9,3.1,1.3,3.4,3.0,1331,1326,1338,1334,1326,23.1,-0.06,0.0005,-0.0001,0.0003
18:26:13.603,8.7,7.0,3.3,5.2,3.0,4.5,1331,1327,1341,1335,1321,23.1,-0.01,0.0005,-0.0001,0.0003
18:26:13.664,9.0,7.4,3.5,6.9,4.8,0.4,1331,1331,1335,1331,1327,23.1,0.03,0.0005,-0.0001,0.0003
18:26:13.756,9.6,7.6,4.0,10.3,9.3,6.6,1331,1318,1350,1332,1324,23.1,0.03,0.0006,-0.0001,0.0003
18:26:13.873,10.0,7.7,3.9,5.1,1.0,1.3,1330,1327,1334,1335,1327,23.1,0.01,0.0006,-0.0001,0.0003
18:26:13.904,9.6,7.8,4.4,-4.5,2.1,8.8,1331,1318,1344,1344,1319,23.1,0.16,0.0006,-0.0001,0.0004
18:26:14.063,9.3,7.6,4.1,-3.8,-2.9,-3.8,1331,1332,1328,1330,1334,23.1,0.10,0.0005,-0.0001,0.0003
18:26:14.069,9.0,7.3,5.0,-5.0,-0.7,10.2,1330,1316,1344,1344,1318,23.1,0.09,0.0005,-0.0001,0.0003
18:26:14.175,8.5,7.3,5.1,-5.5,-2.4,0.4,1330,1329,1329,1335,1327,23.1,-0.09,0.0005,-0.0001,0.0003
18:26:14.249,8.3,7.5,5.6,-5.7,2.1,5.4,1330,1320,1338,1340,1322,23.1,-0.09,0.0005,-0.0001,0.0004
18:26:14.351,8.7,7.9,6.2,3.3,6.3,13.1,1330,1315,1348,1341,1312,23.1,0.13,0.0005,-0.0001,0.0004
18:26:14.383,8.8,8.4,5.9,4.6,6.1,-3.6,1330,1329,1332,1331,1328,23.1,0.13,0.0005,-0.0000,0.0004
18:26:14.533,9.4,8.6,7.0,0.3,-0.7,12.0,1330,1313,1338,1347,1312,23.1,0.14,0.0005,-0.0000,0.0004
18:26:14.559,9.7,8.4,6.9,-1.5,-7.5,3.2,1330,1323,1329,1345,1323,23.1,0.12,0.0005,-0.0001,0.0004
18:26:14.674,9.8,8.0,7.1,-4.3,-8.7,-1.2,1330,1328,1329,1338,1327,23.1,0.10,0.0005,-0.0001,0.0004
18:26:14.711,10.0,7.3,7.2,-3.8,-10.0,3.3,1330,1319,1333,1341,1327,23.1,0.10,0.0005,-0.0001,0.0004
18:26:14.814,10.4,7.0,6.9,2.6,-11.2,-4.0,1330,1334,1326,1332,1328,23.1,0.03,0.0005,-0.0001,0.0004
18:26:14.877,10.5,6.7,7.2,-4.5,-4.3,3.2,1330,1319,1333,1341,1327,23.1,0.07,0.0005,-0.0001,0.0004
18:26:14.964,11.1,6.5,7.0,6.4,0.9,0.1,1330,1325,1337,1329,1329,23.1,0.19,0.0006,-0.0001,0.0004
18:26:15.050,11.2,7.1,6.8,9.1,6.3,-9.4,1330,1334,1329,1320,1331,23.1,0.20,0.0006,-0.0001,0.0004
18:26:15.135,10.9,6.9,6.6,5.6,3.1,-1.7,1330,1332,1331,1320,1328,23.1,0.20,0.0006,-0.0002,0.0004
18:26:15.218,10.5,6.8,6.7,-1.7,0.7,0.7,1330,1329,1337,1329,1325,23.1,-0.18,0.0006,-0.0001,0.0004
18:26:15.304,9.4,6.6,6.4,-18.6,-1.9,2.8,1330,1324,1333,1338,1329,23.1,0.14,0.0006,-0.0001,0.0004
18:26:15.391,8.2,6.7,6.3,-18.6,0.5,-6.7,1330,1333,1325,1327,1337,23.1,0.05,0.0006,-0.0001,0.0004
18:26:15.445,7.5,6.9,6.3,0.3,11.5,3.6,1330,1323,1339,1323,1323,23.1,0.21,0.0006,-0.0001,0.0004
